[{"_id":"66be07fd0d51b213e01eff54","Location_RG_ID":"w7YbttcR","Location_RG_City":"Mariehamn","Location_RG_Country":"Aland","Location_RG_Latitude":60.097,"Location_RG_Longitude":19.935},{"_id":"66be07fd0d51b213e01eff56","Location_RG_ID":"5gooj9KL","Location_RG_City":"Tirana","Location_RG_Country":"Albania","Location_RG_Latitude":41.328,"Location_RG_Longitude":19.819},{"_id":"66be07fd0d51b213e01eff5a","Location_RG_ID":"r4E9T7xr","Location_RG_City":"Algiers","Location_RG_Country":"Algeria","Location_RG_Latitude":36.754,"Location_RG_Longitude":3.059},{"_id":"66be07fe0d51b213e01eff5d","Location_RG_ID":"81ejjJPk","Location_RG_City":"Andorra la Vella","Location_RG_Country":"Andorra","Location_RG_Latitude":42.506,"Location_RG_Longitude":1.522},{"_id":"66be07fe0d51b213e01eff5f","Location_RG_ID":"ubk3vYdL","Location_RG_City":"Abasto","Location_RG_Country":"Argentina","Location_RG_Latitude":-34.985,"Location_RG_Longitude":-58.091},{"_id":"66be07fe0d51b213e01eff61","Location_RG_ID":"c1RzQLrI","Location_RG_City":"Alejandro Korn","Location_RG_Country":"Argentina","Location_RG_Latitude":-34.99,"Location_RG_Longitude":-58.382},{"_id":"66be07fe0d51b213e01eff63","Location_RG_ID":"ADLnsUMV","Location_RG_City":"Alejandro Roca","Location_RG_Country":"Argentina","Location_RG_Latitude":-33.353,"Location_RG_Longitude":-63.717},{"_id":"66be07fe0d51b213e01eff65","Location_RG_ID":"VLkNBHGC","Location_RG_City":"Allen","Location_RG_Country":"Argentina","Location_RG_Latitude":-38.976,"Location_RG_Longitude":-67.83},{"_id":"66be07ff0d51b213e01eff68","Location_RG_ID":"9n5f1OzO","Location_RG_City":"Alta Gracia","Location_RG_Country":"Argentina","Location_RG_Latitude":-31.657,"Location_RG_Longitude":-64.435},{"_id":"66be07ff0d51b213e01eff6b","Location_RG_ID":"_9ULQqGS","Location_RG_City":"Andalgalá","Location_RG_Country":"Argentina","Location_RG_Latitude":-27.583,"Location_RG_Longitude":-66.315},{"_id":"66be07ff0d51b213e01eff6d","Location_RG_ID":"7qHps23S","Location_RG_City":"Bahía Blanca","Location_RG_Country":"Argentina","Location_RG_Latitude":-38.718,"Location_RG_Longitude":-62.266},{"_id":"66be07ff0d51b213e01eff6f","Location_RG_ID":"WIG6xc4A","Location_RG_City":"Banfield","Location_RG_Country":"Argentina","Location_RG_Latitude":-34.745,"Location_RG_Longitude":-58.392},{"_id":"66be08000d51b213e01eff71","Location_RG_ID":"J8SBVAzl","Location_RG_City":"Berazategui","Location_RG_Country":"Argentina","Location_RG_Latitude":-34.762,"Location_RG_Longitude":-58.211},{"_id":"66be08000d51b213e01eff73","Location_RG_ID":"jfPfHZDd","Location_RG_City":"Buenos Aires","Location_RG_Country":"Argentina","Location_RG_Latitude":-34.604,"Location_RG_Longitude":-58.382},{"_id":"66be08000d51b213e01eff76","Location_RG_ID":"0oALAXD6","Location_RG_City":"Caleta Olivia","Location_RG_Country":"Argentina","Location_RG_Latitude":-46.443,"Location_RG_Longitude":-67.517},{"_id":"66be08000d51b213e01eff79","Location_RG_ID":"8bpgLLGQ","Location_RG_City":"Canning","Location_RG_Country":"Argentina","Location_RG_Latitude":-34.885,"Location_RG_Longitude":-58.513},{"_id":"66be08000d51b213e01eff7b","Location_RG_ID":"K9OntsX4","Location_RG_City":"Carcarañá","Location_RG_Country":"Argentina","Location_RG_Latitude":-32.857,"Location_RG_Longitude":-61.158},{"_id":"66be08010d51b213e01eff7d","Location_RG_ID":"Qlfh8LiY","Location_RG_City":"Carhué","Location_RG_Country":"Argentina","Location_RG_Latitude":-37.18,"Location_RG_Longitude":-62.76},{"_id":"66be08010d51b213e01eff7f","Location_RG_ID":"hY1URto8","Location_RG_City":"Caseros","Location_RG_Country":"Argentina","Location_RG_Latitude":-34.61,"Location_RG_Longitude":-58.564},{"_id":"66be08010d51b213e01eff81","Location_RG_ID":"6zxSiXnh","Location_RG_City":"Catamarca","Location_RG_Country":"Argentina","Location_RG_Latitude":-28.472,"Location_RG_Longitude":-65.788},{"_id":"66be08020d51b213e01eff83","Location_RG_ID":"UILkvrcc","Location_RG_City":"Cañada de Gómez","Location_RG_Country":"Argentina","Location_RG_Latitude":-32.821,"Location_RG_Longitude":-61.395},{"_id":"66be08020d51b213e01eff85","Location_RG_ID":"Bg1iA9PX","Location_RG_City":"Chenaut","Location_RG_Country":"Argentina","Location_RG_Latitude":-34.233,"Location_RG_Longitude":-59.208},{"_id":"66be08020d51b213e01eff87","Location_RG_ID":"qG0SQ4tF","Location_RG_City":"Correa","Location_RG_Country":"Argentina","Location_RG_Latitude":-32.85,"Location_RG_Longitude":-61.254},{"_id":"66be08020d51b213e01eff89","Location_RG_ID":"EWh2RLFg","Location_RG_City":"Corrientes","Location_RG_Country":"Argentina","Location_RG_Latitude":-27.469,"Location_RG_Longitude":-58.831},{"_id":"66be08030d51b213e01eff8b","Location_RG_ID":"FO9PLrjD","Location_RG_City":"Costa del Este","Location_RG_Country":"Argentina","Location_RG_Latitude":-36.609,"Location_RG_Longitude":-56.688},{"_id":"66be08030d51b213e01eff8e","Location_RG_ID":"AG2wMKLy","Location_RG_City":"Cutral Có","Location_RG_Country":"Argentina","Location_RG_Latitude":-38.938,"Location_RG_Longitude":-69.23},{"_id":"66be08030d51b213e01eff91","Location_RG_ID":"xq6aU3rB","Location_RG_City":"Córdoba","Location_RG_Country":"Argentina","Location_RG_Latitude":-31.42,"Location_RG_Longitude":-64.189},{"_id":"66be08030d51b213e01eff93","Location_RG_ID":"1hlBQs0c","Location_RG_City":"Diamante","Location_RG_Country":"Argentina","Location_RG_Latitude":-32.07,"Location_RG_Longitude":-60.638},{"_id":"66be08030d51b213e01eff97","Location_RG_ID":"c1IPyMh4","Location_RG_City":"Don Torcuato","Location_RG_Country":"Argentina","Location_RG_Latitude":-34.494,"Location_RG_Longitude":-58.627},{"_id":"66be08040d51b213e01eff99","Location_RG_ID":"xCluoi44","Location_RG_City":"Ezeiza","Location_RG_Country":"Argentina","Location_RG_Latitude":-34.79,"Location_RG_Longitude":-58.523},{"_id":"66be08040d51b213e01eff9b","Location_RG_ID":"At1TuScn","Location_RG_City":"Formosa","Location_RG_Country":"Argentina","Location_RG_Latitude":-26.186,"Location_RG_Longitude":-58.176},{"_id":"66be08040d51b213e01eff9d","Location_RG_ID":"kCLlI4eE","Location_RG_City":"General Alvear, Mendoza","Location_RG_Country":"Argentina","Location_RG_Latitude":-34.978,"Location_RG_Longitude":-67.689},{"_id":"66be08040d51b213e01eff9f","Location_RG_ID":"RP9tqxlc","Location_RG_City":"Glew","Location_RG_Country":"Argentina","Location_RG_Latitude":-34.885,"Location_RG_Longitude":-58.381},{"_id":"66be08050d51b213e01effa1","Location_RG_ID":"ZviegZt3","Location_RG_City":"Grand Bourg","Location_RG_Country":"Argentina","Location_RG_Latitude":-34.486,"Location_RG_Longitude":-58.725},{"_id":"66be08050d51b213e01effa3","Location_RG_ID":"NetifTa9","Location_RG_City":"Gualeguay","Location_RG_Country":"Argentina","Location_RG_Latitude":-33.15,"Location_RG_Longitude":-59.311},{"_id":"66be08050d51b213e01effa6","Location_RG_ID":"1pFSjC-r","Location_RG_City":"Guaymallén","Location_RG_Country":"Argentina","Location_RG_Latitude":-32.903,"Location_RG_Longitude":-68.805},{"_id":"66be08050d51b213e01effa8","Location_RG_ID":"xRyIrwVa","Location_RG_City":"Hernando","Location_RG_Country":"Argentina","Location_RG_Latitude":-32.426,"Location_RG_Longitude":-63.732},{"_id":"66be08050d51b213e01effaa","Location_RG_ID":"BVxr_kVL","Location_RG_City":"La Paz","Location_RG_Country":"Argentina","Location_RG_Latitude":-33.459,"Location_RG_Longitude":-67.55},{"_id":"66be08060d51b213e01effac","Location_RG_ID":"F7DotPzE","Location_RG_City":"La Plata","Location_RG_Country":"Argentina","Location_RG_Latitude":-34.921,"Location_RG_Longitude":-57.954},{"_id":"66be08060d51b213e01effae","Location_RG_ID":"FloVLEfO","Location_RG_City":"La Rioja","Location_RG_Country":"Argentina","Location_RG_Latitude":-29.414,"Location_RG_Longitude":-66.857},{"_id":"66be08060d51b213e01effb0","Location_RG_ID":"uR11LGOj","Location_RG_City":"Laborde","Location_RG_Country":"Argentina","Location_RG_Latitude":-33.152,"Location_RG_Longitude":-62.856},{"_id":"66be08060d51b213e01effb2","Location_RG_ID":"oH6e2N3h","Location_RG_City":"Los Polvorines","Location_RG_Country":"Argentina","Location_RG_Latitude":-34.5,"Location_RG_Longitude":-58.692},{"_id":"66be08070d51b213e01effb4","Location_RG_ID":"fTiKb-Dk","Location_RG_City":"Luis Beltrán","Location_RG_Country":"Argentina","Location_RG_Latitude":-39.313,"Location_RG_Longitude":-65.76},{"_id":"66be08070d51b213e01effb6","Location_RG_ID":"H4nBV0Gx","Location_RG_City":"López","Location_RG_Country":"Argentina","Location_RG_Latitude":-31.904,"Location_RG_Longitude":-61.277},{"_id":"66be08070d51b213e01effb8","Location_RG_ID":"UTgE5ros","Location_RG_City":"Malabrigo","Location_RG_Country":"Argentina","Location_RG_Latitude":-29.349,"Location_RG_Longitude":-59.97},{"_id":"66be08070d51b213e01effba","Location_RG_ID":"gnTxYrDj","Location_RG_City":"Mar del Plata","Location_RG_Country":"Argentina","Location_RG_Latitude":-38.006,"Location_RG_Longitude":-57.543},{"_id":"66be08070d51b213e01effbe","Location_RG_ID":"YxCHF4r1","Location_RG_City":"Mendoza","Location_RG_Country":"Argentina","Location_RG_Latitude":-32.89,"Location_RG_Longitude":-68.846},{"_id":"66be08080d51b213e01effc1","Location_RG_ID":"5snWokCl","Location_RG_City":"Morteros","Location_RG_Country":"Argentina","Location_RG_Latitude":-30.711,"Location_RG_Longitude":-62.007},{"_id":"66be08080d51b213e01effc3","Location_RG_ID":"Fi5joUD3","Location_RG_City":"Olavarría","Location_RG_Country":"Argentina","Location_RG_Latitude":-36.894,"Location_RG_Longitude":-60.323},{"_id":"66be08080d51b213e01effc5","Location_RG_ID":"Ihsnnmm6","Location_RG_City":"Pigüé","Location_RG_Country":"Argentina","Location_RG_Latitude":-37.603,"Location_RG_Longitude":-62.402},{"_id":"66be08080d51b213e01effc7","Location_RG_ID":"6KbWhyxm","Location_RG_City":"Ramos Mejía","Location_RG_Country":"Argentina","Location_RG_Latitude":-34.655,"Location_RG_Longitude":-58.554},{"_id":"66be08090d51b213e01effc9","Location_RG_ID":"gVep4aJm","Location_RG_City":"Resistencia","Location_RG_Country":"Argentina","Location_RG_Latitude":-27.452,"Location_RG_Longitude":-58.986},{"_id":"66be08090d51b213e01effcb","Location_RG_ID":"FwxqFKua","Location_RG_City":"Rosario","Location_RG_Country":"Argentina","Location_RG_Latitude":-32.944,"Location_RG_Longitude":-60.651},{"_id":"66be08090d51b213e01effcf","Location_RG_ID":"WnYUP4wm","Location_RG_City":"San Bernardo del Tuyú","Location_RG_Country":"Argentina","Location_RG_Latitude":-36.686,"Location_RG_Longitude":-56.679},{"_id":"66be08090d51b213e01effd1","Location_RG_ID":"M0yqO5wn","Location_RG_City":"San Carlos de Bariloche","Location_RG_Country":"Argentina","Location_RG_Latitude":-41.134,"Location_RG_Longitude":-71.31},{"_id":"66be08090d51b213e01effd8","Location_RG_ID":"LAMgRqaQ","Location_RG_City":"San Isidro","Location_RG_Country":"Argentina","Location_RG_Latitude":-34.472,"Location_RG_Longitude":-58.508},{"_id":"66be080a0d51b213e01effda","Location_RG_ID":"DOTAB5ul","Location_RG_City":"San José de Metán","Location_RG_Country":"Argentina","Location_RG_Latitude":-25.494,"Location_RG_Longitude":-64.972},{"_id":"66be080a0d51b213e01effdd","Location_RG_ID":"5vIzsKFx","Location_RG_City":"San Miguel","Location_RG_Country":"Argentina","Location_RG_Latitude":-34.543,"Location_RG_Longitude":-58.712},{"_id":"66be080a0d51b213e01effdf","Location_RG_ID":"6EpIywTB","Location_RG_City":"San Miguel de Tucumán","Location_RG_Country":"Argentina","Location_RG_Latitude":-26.808,"Location_RG_Longitude":-65.218},{"_id":"66be080a0d51b213e01effe2","Location_RG_ID":"YsXtUw33","Location_RG_City":"Santa Fe","Location_RG_Country":"Argentina","Location_RG_Latitude":-31.611,"Location_RG_Longitude":-60.697},{"_id":"66be080b0d51b213e01effe4","Location_RG_ID":"mXOtgPjY","Location_RG_City":"Sunchales","Location_RG_Country":"Argentina","Location_RG_Latitude":-30.945,"Location_RG_Longitude":-61.561},{"_id":"66be080b0d51b213e01effe6","Location_RG_ID":"bJI_cNR0","Location_RG_City":"Tilcara","Location_RG_Country":"Argentina","Location_RG_Latitude":-23.577,"Location_RG_Longitude":-65.393},{"_id":"66be080b0d51b213e01effe8","Location_RG_ID":"gMF1ujQX","Location_RG_City":"Unquillo","Location_RG_Country":"Argentina","Location_RG_Latitude":-31.234,"Location_RG_Longitude":-64.317},{"_id":"66be080b0d51b213e01effea","Location_RG_ID":"aBvr869K","Location_RG_City":"Ushuaia","Location_RG_Country":"Argentina","Location_RG_Latitude":-54.802,"Location_RG_Longitude":-68.303},{"_id":"66be080b0d51b213e01effec","Location_RG_ID":"H8anvSKH","Location_RG_City":"Veinticinco de Mayo","Location_RG_Country":"Argentina","Location_RG_Latitude":-35.432,"Location_RG_Longitude":-60.172},{"_id":"66be080c0d51b213e01effee","Location_RG_ID":"eNCde6Ag","Location_RG_City":"Villa Carlos Paz","Location_RG_Country":"Argentina","Location_RG_Latitude":-31.421,"Location_RG_Longitude":-64.499},{"_id":"66be080c0d51b213e01efff0","Location_RG_ID":"BbN0HE6x","Location_RG_City":"Villa María","Location_RG_Country":"Argentina","Location_RG_Latitude":-32.411,"Location_RG_Longitude":-63.244},{"_id":"66be080c0d51b213e01efff2","Location_RG_ID":"vhZu4isa","Location_RG_City":"Villaguay","Location_RG_Country":"Argentina","Location_RG_Latitude":-31.868,"Location_RG_Longitude":-59.027},{"_id":"66be080c0d51b213e01efff4","Location_RG_ID":"ARXzBqK7","Location_RG_City":"Yerevan","Location_RG_Country":"Armenia","Location_RG_Latitude":40.179,"Location_RG_Longitude":44.499},{"_id":"66be080d0d51b213e01efff6","Location_RG_ID":"uWmJDVuS","Location_RG_City":"Oranjestad","Location_RG_Country":"Aruba","Location_RG_Latitude":12.509,"Location_RG_Longitude":-70.009},{"_id":"66be080d0d51b213e01efffa","Location_RG_ID":"75dKjMkz","Location_RG_City":"Adelaide","Location_RG_Country":"Australia","Location_RG_Latitude":-34.929,"Location_RG_Longitude":138.601},{"_id":"66be080d0d51b213e01efffc","Location_RG_ID":"XFdVoKdL","Location_RG_City":"Airlie Beach","Location_RG_Country":"Australia","Location_RG_Latitude":-20.268,"Location_RG_Longitude":148.716},{"_id":"66be080d0d51b213e01efffe","Location_RG_ID":"tAz6BDnn","Location_RG_City":"Albury","Location_RG_Country":"Australia","Location_RG_Latitude":-36.074,"Location_RG_Longitude":146.914},{"_id":"66be080d0d51b213e01f0002","Location_RG_ID":"hw7TPJTw","Location_RG_City":"Ballarat City","Location_RG_Country":"Australia","Location_RG_Latitude":-37.562,"Location_RG_Longitude":143.85},{"_id":"66be080e0d51b213e01f0004","Location_RG_ID":"2JFEfPMX","Location_RG_City":"Bega","Location_RG_Country":"Australia","Location_RG_Latitude":-36.674,"Location_RG_Longitude":149.843},{"_id":"66be080e0d51b213e01f0006","Location_RG_ID":"9JRXlK0X","Location_RG_City":"Bendigo","Location_RG_Country":"Australia","Location_RG_Latitude":-36.759,"Location_RG_Longitude":144.284},{"_id":"66be080f0d51b213e01f0008","Location_RG_ID":"Wa19bKgY","Location_RG_City":"Berri","Location_RG_Country":"Australia","Location_RG_Latitude":-34.285,"Location_RG_Longitude":140.602},{"_id":"66be080f0d51b213e01f000a","Location_RG_ID":"ZhslbOt3","Location_RG_City":"Biloela","Location_RG_Country":"Australia","Location_RG_Latitude":-24.403,"Location_RG_Longitude":150.512},{"_id":"66be080f0d51b213e01f000d","Location_RG_ID":"Tq085IGX","Location_RG_City":"Bonville","Location_RG_Country":"Australia","Location_RG_Latitude":-30.383,"Location_RG_Longitude":153.05},{"_id":"66be080f0d51b213e01f000f","Location_RG_ID":"UwMdvkah","Location_RG_City":"Bourke","Location_RG_Country":"Australia","Location_RG_Latitude":-30.091,"Location_RG_Longitude":145.938},{"_id":"66be08100d51b213e01f0011","Location_RG_ID":"Jh0OxMsv","Location_RG_City":"Bright","Location_RG_Country":"Australia","Location_RG_Latitude":-36.728,"Location_RG_Longitude":146.961},{"_id":"66be08100d51b213e01f0013","Location_RG_ID":"QKLFbVhA","Location_RG_City":"Brisbane","Location_RG_Country":"Australia","Location_RG_Latitude":-27.47,"Location_RG_Longitude":153.025},{"_id":"66be08100d51b213e01f0015","Location_RG_ID":"b8VsIUzl","Location_RG_City":"Bundaberg","Location_RG_Country":"Australia","Location_RG_Latitude":-24.867,"Location_RG_Longitude":152.351},{"_id":"66be08100d51b213e01f0017","Location_RG_ID":"tCHBPjjF","Location_RG_City":"Burnie","Location_RG_Country":"Australia","Location_RG_Latitude":-41.053,"Location_RG_Longitude":145.905},{"_id":"66be08100d51b213e01f0019","Location_RG_ID":"RT9hz1ew","Location_RG_City":"Byron Bay","Location_RG_Country":"Australia","Location_RG_Latitude":-28.644,"Location_RG_Longitude":153.612},{"_id":"66be08110d51b213e01f001b","Location_RG_ID":"xAlBglar","Location_RG_City":"Cairns","Location_RG_Country":"Australia","Location_RG_Latitude":-16.919,"Location_RG_Longitude":145.778},{"_id":"66be08110d51b213e01f001d","Location_RG_ID":"CRVDk8z6","Location_RG_City":"Canberra","Location_RG_Country":"Australia","Location_RG_Latitude":-35.282,"Location_RG_Longitude":149.129},{"_id":"66be08110d51b213e01f001f","Location_RG_ID":"lCYQZsjD","Location_RG_City":"Carnarvon","Location_RG_Country":"Australia","Location_RG_Latitude":-24.872,"Location_RG_Longitude":113.665},{"_id":"66be08110d51b213e01f0022","Location_RG_ID":"u9BBu27T","Location_RG_City":"Charleville","Location_RG_Country":"Australia","Location_RG_Latitude":-26.402,"Location_RG_Longitude":146.245},{"_id":"66be08120d51b213e01f0026","Location_RG_ID":"hKsEJfT0","Location_RG_City":"Cooma","Location_RG_Country":"Australia","Location_RG_Latitude":-36.227,"Location_RG_Longitude":149.13},{"_id":"66be08120d51b213e01f0028","Location_RG_ID":"0AVyR0QK","Location_RG_City":"Darwin","Location_RG_Country":"Australia","Location_RG_Latitude":-12.463,"Location_RG_Longitude":130.846},{"_id":"66be08120d51b213e01f002a","Location_RG_ID":"UNBCub8a","Location_RG_City":"Deloraine","Location_RG_Country":"Australia","Location_RG_Latitude":-41.524,"Location_RG_Longitude":146.653},{"_id":"66be08120d51b213e01f002c","Location_RG_ID":"RTtRuZU9","Location_RG_City":"Denmark","Location_RG_Country":"Australia","Location_RG_Latitude":-34.962,"Location_RG_Longitude":117.351},{"_id":"66be08130d51b213e01f002e","Location_RG_ID":"jM9shzmA","Location_RG_City":"Devonport","Location_RG_Country":"Australia","Location_RG_Latitude":-41.177,"Location_RG_Longitude":146.345},{"_id":"66be08130d51b213e01f0030","Location_RG_ID":"DRLU5d5D","Location_RG_City":"Fremantle","Location_RG_Country":"Australia","Location_RG_Latitude":-32.052,"Location_RG_Longitude":115.755},{"_id":"66be08130d51b213e01f0033","Location_RG_ID":"niww0Rsc","Location_RG_City":"Geelong","Location_RG_Country":"Australia","Location_RG_Latitude":-38.149,"Location_RG_Longitude":144.361},{"_id":"66be08130d51b213e01f0036","Location_RG_ID":"8eirDwDi","Location_RG_City":"Gold Coast City","Location_RG_Country":"Australia","Location_RG_Latitude":-28.017,"Location_RG_Longitude":153.4},{"_id":"66be08130d51b213e01f0038","Location_RG_ID":"UMhsws15","Location_RG_City":"Goulburn","Location_RG_Country":"Australia","Location_RG_Latitude":-34.755,"Location_RG_Longitude":149.719},{"_id":"66be08140d51b213e01f003a","Location_RG_ID":"QCooRI2i","Location_RG_City":"Gulmarrad","Location_RG_Country":"Australia","Location_RG_Latitude":-29.501,"Location_RG_Longitude":153.225},{"_id":"66be08140d51b213e01f003d","Location_RG_ID":"7aGLBhHY","Location_RG_City":"Hawks Nest","Location_RG_Country":"Australia","Location_RG_Latitude":41.708,"Location_RG_Longitude":-86.895},{"_id":"66be08140d51b213e01f003f","Location_RG_ID":"YLqkIxhd","Location_RG_City":"Hobart","Location_RG_Country":"Australia","Location_RG_Latitude":-42.882,"Location_RG_Longitude":147.324},{"_id":"66be08140d51b213e01f0041","Location_RG_ID":"IXxYahqp","Location_RG_City":"Inverloch","Location_RG_Country":"Australia","Location_RG_Latitude":-38.633,"Location_RG_Longitude":145.728},{"_id":"66be08150d51b213e01f0043","Location_RG_ID":"vhs9UEyB","Location_RG_City":"Ipswich","Location_RG_Country":"Australia","Location_RG_Latitude":-27.623,"Location_RG_Longitude":152.76},{"_id":"66be08150d51b213e01f0046","Location_RG_ID":"ZxjU5QIg","Location_RG_City":"Launceston","Location_RG_Country":"Australia","Location_RG_Latitude":-41.433,"Location_RG_Longitude":147.144},{"_id":"66be08150d51b213e01f0048","Location_RG_ID":"Ma4_aAzS","Location_RG_City":"Lismore","Location_RG_Country":"Australia","Location_RG_Latitude":-28.809,"Location_RG_Longitude":153.289},{"_id":"66be08150d51b213e01f004a","Location_RG_ID":"Qedi8hBK","Location_RG_City":"Lithgow","Location_RG_Country":"Australia","Location_RG_Latitude":-33.483,"Location_RG_Longitude":150.157},{"_id":"66be08150d51b213e01f004c","Location_RG_ID":"BouhznMi","Location_RG_City":"Mackay","Location_RG_Country":"Australia","Location_RG_Latitude":-21.141,"Location_RG_Longitude":149.186},{"_id":"66be08160d51b213e01f004e","Location_RG_ID":"bQwEi3gP","Location_RG_City":"Mareeba","Location_RG_Country":"Australia","Location_RG_Latitude":-17.002,"Location_RG_Longitude":145.439},{"_id":"66be08160d51b213e01f0050","Location_RG_ID":"XqXh1jnm","Location_RG_City":"Margaret River","Location_RG_Country":"Australia","Location_RG_Latitude":-33.951,"Location_RG_Longitude":115.074},{"_id":"66be08160d51b213e01f0052","Location_RG_ID":"OXpr0ERz","Location_RG_City":"Melbourne","Location_RG_Country":"Australia","Location_RG_Latitude":-37.816,"Location_RG_Longitude":144.964},{"_id":"66be08170d51b213e01f0054","Location_RG_ID":"o57TAVVw","Location_RG_City":"Murray Bridge","Location_RG_Country":"Australia","Location_RG_Latitude":-35.12,"Location_RG_Longitude":139.275},{"_id":"66be08170d51b213e01f0057","Location_RG_ID":"vh9JdqyM","Location_RG_City":"Muswellbrook","Location_RG_Country":"Australia","Location_RG_Latitude":-32.265,"Location_RG_Longitude":150.888},{"_id":"66be08170d51b213e01f005a","Location_RG_ID":"VbXIi4-C","Location_RG_City":"Myrtleford","Location_RG_Country":"Australia","Location_RG_Latitude":-36.556,"Location_RG_Longitude":146.724},{"_id":"66be08170d51b213e01f005c","Location_RG_ID":"8hAImZE1","Location_RG_City":"Newcastle","Location_RG_Country":"Australia","Location_RG_Latitude":-32.928,"Location_RG_Longitude":151.782},{"_id":"66be08170d51b213e01f005f","Location_RG_ID":"kiGsb4RG","Location_RG_City":"Nowra","Location_RG_Country":"Australia","Location_RG_Latitude":-34.875,"Location_RG_Longitude":150.603},{"_id":"66be08180d51b213e01f0062","Location_RG_ID":"BgzBQ0Ns","Location_RG_City":"Orange","Location_RG_Country":"Australia","Location_RG_Latitude":-33.283,"Location_RG_Longitude":149.1},{"_id":"66be08180d51b213e01f0064","Location_RG_ID":"cKenL5sw","Location_RG_City":"Perth","Location_RG_Country":"Australia","Location_RG_Latitude":-31.951,"Location_RG_Longitude":115.861},{"_id":"66be08180d51b213e01f0066","Location_RG_ID":"p0pSTRup","Location_RG_City":"Port Lincoln","Location_RG_Country":"Australia","Location_RG_Latitude":-34.73,"Location_RG_Longitude":135.851},{"_id":"66be08180d51b213e01f0068","Location_RG_ID":"JhHAWEYb","Location_RG_City":"Port Macquarie","Location_RG_Country":"Australia","Location_RG_Latitude":-31.433,"Location_RG_Longitude":152.9},{"_id":"66be08190d51b213e01f006a","Location_RG_ID":"lBmcBWJw","Location_RG_City":"Redcliffe","Location_RG_Country":"Australia","Location_RG_Latitude":41.708,"Location_RG_Longitude":-86.895},{"_id":"66be08190d51b213e01f006c","Location_RG_ID":"kymzosig","Location_RG_City":"Roma","Location_RG_Country":"Australia","Location_RG_Latitude":-26.572,"Location_RG_Longitude":148.79},{"_id":"66be08190d51b213e01f006e","Location_RG_ID":"N0WlitFN","Location_RG_City":"Sunshine Coast","Location_RG_Country":"Australia","Location_RG_Latitude":-26.65,"Location_RG_Longitude":153.067},{"_id":"66be08190d51b213e01f0071","Location_RG_ID":"uNB8u2o7","Location_RG_City":"Sydney","Location_RG_Country":"Australia","Location_RG_Latitude":-33.869,"Location_RG_Longitude":151.209},{"_id":"66be08190d51b213e01f0073","Location_RG_ID":"IB0uffHc","Location_RG_City":"Tamworth","Location_RG_Country":"Australia","Location_RG_Latitude":-31.091,"Location_RG_Longitude":150.93},{"_id":"66be081a0d51b213e01f0075","Location_RG_ID":"9JDZmwK4","Location_RG_City":"Tea Gardens","Location_RG_Country":"Australia","Location_RG_Latitude":-32.66,"Location_RG_Longitude":152.152},{"_id":"66be081a0d51b213e01f0077","Location_RG_ID":"CN5D6VQT","Location_RG_City":"Tenterfield","Location_RG_Country":"Australia","Location_RG_Latitude":-29.058,"Location_RG_Longitude":152.019},{"_id":"66be081a0d51b213e01f0079","Location_RG_ID":"tklD9Tx0","Location_RG_City":"Toowoomba City","Location_RG_Country":"Australia","Location_RG_Latitude":-27.56,"Location_RG_Longitude":151.951},{"_id":"66be081a0d51b213e01f007b","Location_RG_ID":"oE7Hyotl","Location_RG_City":"Townsville City","Location_RG_Country":"Australia","Location_RG_Latitude":-19.258,"Location_RG_Longitude":146.818},{"_id":"66be081b0d51b213e01f007d","Location_RG_ID":"LYpDAbZz","Location_RG_City":"Tumut","Location_RG_Country":"Australia","Location_RG_Latitude":-35.301,"Location_RG_Longitude":148.224},{"_id":"66be081b0d51b213e01f007f","Location_RG_ID":"M4E-uYa5","Location_RG_City":"Tweed Heads West","Location_RG_Country":"Australia","Location_RG_Latitude":-28.187,"Location_RG_Longitude":153.504},{"_id":"66be081b0d51b213e01f0081","Location_RG_ID":"qKXZaA4v","Location_RG_City":"Wagga Wagga","Location_RG_Country":"Australia","Location_RG_Latitude":-35.108,"Location_RG_Longitude":147.36},{"_id":"66be081b0d51b213e01f0083","Location_RG_ID":"RmcUFVEY","Location_RG_City":"Warragul","Location_RG_Country":"Australia","Location_RG_Latitude":-38.154,"Location_RG_Longitude":145.93},{"_id":"66be081c0d51b213e01f0087","Location_RG_ID":"BuZZj6rk","Location_RG_City":"Wee Waa","Location_RG_Country":"Australia","Location_RG_Latitude":-30.227,"Location_RG_Longitude":149.446},{"_id":"66be081c0d51b213e01f0089","Location_RG_ID":"itxo7sgD","Location_RG_City":"Whyalla","Location_RG_Country":"Australia","Location_RG_Latitude":-33.038,"Location_RG_Longitude":137.575},{"_id":"66be081c0d51b213e01f008c","Location_RG_ID":"xjx8vD0g","Location_RG_City":"Wollongong","Location_RG_Country":"Australia","Location_RG_Latitude":-34.428,"Location_RG_Longitude":150.893},{"_id":"66be081c0d51b213e01f008e","Location_RG_ID":"RvvqB0xd","Location_RG_City":"Woodford","Location_RG_Country":"Australia","Location_RG_Latitude":-33.736,"Location_RG_Longitude":150.478},{"_id":"66be081c0d51b213e01f0090","Location_RG_ID":"WfTpGUWl","Location_RG_City":"Young","Location_RG_Country":"Australia","Location_RG_Latitude":-34.3,"Location_RG_Longitude":148.3},{"_id":"66be081d0d51b213e01f0092","Location_RG_ID":"F6qbfdwL","Location_RG_City":"Bad Ischl","Location_RG_Country":"Austria","Location_RG_Latitude":47.712,"Location_RG_Longitude":13.621},{"_id":"66be081d0d51b213e01f0094","Location_RG_ID":"aRBxvo1V","Location_RG_City":"Bregenz","Location_RG_Country":"Austria","Location_RG_Latitude":47.501,"Location_RG_Longitude":9.742},{"_id":"66be081d0d51b213e01f0097","Location_RG_ID":"SPvWatXu","Location_RG_City":"Eisenstadt","Location_RG_Country":"Austria","Location_RG_Latitude":47.846,"Location_RG_Longitude":16.528},{"_id":"66be081d0d51b213e01f0099","Location_RG_ID":"Kd6yALeT","Location_RG_City":"Freistadt","Location_RG_Country":"Austria","Location_RG_Latitude":48.502,"Location_RG_Longitude":14.502},{"_id":"66be081e0d51b213e01f009c","Location_RG_ID":"AJOjI7A7","Location_RG_City":"Gmunden","Location_RG_Country":"Austria","Location_RG_Latitude":47.918,"Location_RG_Longitude":13.799},{"_id":"66be081e0d51b213e01f009e","Location_RG_ID":"FZ2DA84B","Location_RG_City":"Graz","Location_RG_Country":"Austria","Location_RG_Latitude":47.071,"Location_RG_Longitude":15.44},{"_id":"66be081e0d51b213e01f00a1","Location_RG_ID":"g5LtGvWm","Location_RG_City":"Hollabrunn","Location_RG_Country":"Austria","Location_RG_Latitude":48.563,"Location_RG_Longitude":16.079},{"_id":"66be081e0d51b213e01f00a3","Location_RG_ID":"9CjRC8Y6","Location_RG_City":"Innsbruck","Location_RG_Country":"Austria","Location_RG_Latitude":47.269,"Location_RG_Longitude":11.404},{"_id":"66be081e0d51b213e01f00a5","Location_RG_ID":"u7ji46Bl","Location_RG_City":"Kirchberg am Wagram","Location_RG_Country":"Austria","Location_RG_Latitude":48.432,"Location_RG_Longitude":15.898},{"_id":"66be081f0d51b213e01f00a7","Location_RG_ID":"mJwaBEfD","Location_RG_City":"Klagenfurt","Location_RG_Country":"Austria","Location_RG_Latitude":46.637,"Location_RG_Longitude":14.312},{"_id":"66be081f0d51b213e01f00a9","Location_RG_ID":"BXIgfaWs","Location_RG_City":"Krems an der Donau","Location_RG_Country":"Austria","Location_RG_Latitude":48.41,"Location_RG_Longitude":15.604},{"_id":"66be081f0d51b213e01f00ac","Location_RG_ID":"9wu7H6oA","Location_RG_City":"Liezen","Location_RG_Country":"Austria","Location_RG_Latitude":47.567,"Location_RG_Longitude":14.243},{"_id":"66be081f0d51b213e01f00ae","Location_RG_ID":"SPzH9BYQ","Location_RG_City":"Linz","Location_RG_Country":"Austria","Location_RG_Latitude":48.307,"Location_RG_Longitude":14.286},{"_id":"66be08200d51b213e01f00b0","Location_RG_ID":"qsfaPBHr","Location_RG_City":"Mattersburg","Location_RG_Country":"Austria","Location_RG_Latitude":47.736,"Location_RG_Longitude":16.397},{"_id":"66be08200d51b213e01f00b2","Location_RG_ID":"WYahc0tS","Location_RG_City":"Saalfelden","Location_RG_Country":"Austria","Location_RG_Latitude":47.427,"Location_RG_Longitude":12.841},{"_id":"66be08200d51b213e01f00b4","Location_RG_ID":"kE9tGZgt","Location_RG_City":"Saint Pölten","Location_RG_Country":"Austria","Location_RG_Latitude":48.204,"Location_RG_Longitude":15.638},{"_id":"66be08200d51b213e01f00b6","Location_RG_ID":"6t1sKfuZ","Location_RG_City":"Salzburg","Location_RG_Country":"Austria","Location_RG_Latitude":47.81,"Location_RG_Longitude":13.055},{"_id":"66be08200d51b213e01f00b8","Location_RG_ID":"McsUNnXE","Location_RG_City":"Sankt Leonhard am Forst","Location_RG_Country":"Austria","Location_RG_Latitude":48.143,"Location_RG_Longitude":15.285},{"_id":"66be08210d51b213e01f00ba","Location_RG_ID":"RHiIcjlV","Location_RG_City":"Schwarzach","Location_RG_Country":"Austria","Location_RG_Latitude":47.449,"Location_RG_Longitude":9.763},{"_id":"66be08210d51b213e01f00be","Location_RG_ID":"dIW0tHaN","Location_RG_City":"Schwaz","Location_RG_Country":"Austria","Location_RG_Latitude":47.35,"Location_RG_Longitude":11.706},{"_id":"66be08210d51b213e01f00c0","Location_RG_ID":"IgQ9XxkV","Location_RG_City":"Vienna","Location_RG_Country":"Austria","Location_RG_Latitude":48.208,"Location_RG_Longitude":16.374},{"_id":"66be08210d51b213e01f00c2","Location_RG_ID":"fpICdtGi","Location_RG_City":"Wals-Siezenheim","Location_RG_Country":"Austria","Location_RG_Latitude":47.791,"Location_RG_Longitude":12.968},{"_id":"66be08220d51b213e01f00c6","Location_RG_ID":"ZDciHO7L","Location_RG_City":"Baku","Location_RG_Country":"Azerbaijan","Location_RG_Latitude":40.409,"Location_RG_Longitude":49.867},{"_id":"66be08220d51b213e01f00c8","Location_RG_ID":"4JpFDPX6","Location_RG_City":"Dhaka","Location_RG_Country":"Bangladesh","Location_RG_Latitude":23.81,"Location_RG_Longitude":90.413},{"_id":"66be08220d51b213e01f00ca","Location_RG_ID":"HAF3yFfr","Location_RG_City":"Brest","Location_RG_Country":"Belarus","Location_RG_Latitude":52.098,"Location_RG_Longitude":23.734},{"_id":"66be08220d51b213e01f00cc","Location_RG_ID":"CvHvgCkW","Location_RG_City":"Gomel","Location_RG_Country":"Belarus","Location_RG_Latitude":52.441,"Location_RG_Longitude":30.988},{"_id":"66be08220d51b213e01f00ce","Location_RG_ID":"A5iCHUZj","Location_RG_City":"Grodno","Location_RG_Country":"Belarus","Location_RG_Latitude":53.669,"Location_RG_Longitude":23.813},{"_id":"66be08230d51b213e01f00d0","Location_RG_ID":"7rsJIdfr","Location_RG_City":"Lida","Location_RG_Country":"Belarus","Location_RG_Latitude":53.887,"Location_RG_Longitude":25.289},{"_id":"66be08230d51b213e01f00d2","Location_RG_ID":"OKbHNN8d","Location_RG_City":"Minsk","Location_RG_Country":"Belarus","Location_RG_Latitude":53.905,"Location_RG_Longitude":27.562},{"_id":"66be08230d51b213e01f00d5","Location_RG_ID":"MkEQwQNi","Location_RG_City":"Orsha","Location_RG_Country":"Belarus","Location_RG_Latitude":54.507,"Location_RG_Longitude":30.412},{"_id":"66be08230d51b213e01f00d7","Location_RG_ID":"X2lmqETp","Location_RG_City":"Vitebsk","Location_RG_Country":"Belarus","Location_RG_Latitude":55.185,"Location_RG_Longitude":30.202},{"_id":"66be08240d51b213e01f00d9","Location_RG_ID":"Bs5X7zhT","Location_RG_City":"Aalst","Location_RG_Country":"Belgium","Location_RG_Latitude":50.938,"Location_RG_Longitude":4.041},{"_id":"66be08240d51b213e01f00db","Location_RG_ID":"oY1s7Z1k","Location_RG_City":"Aarschot","Location_RG_Country":"Belgium","Location_RG_Latitude":50.986,"Location_RG_Longitude":4.837},{"_id":"66be08240d51b213e01f00dd","Location_RG_ID":"n2txBgpV","Location_RG_City":"Affligem","Location_RG_Country":"Belgium","Location_RG_Latitude":50.908,"Location_RG_Longitude":4.113},{"_id":"66be08240d51b213e01f00df","Location_RG_ID":"JiLW5qtr","Location_RG_City":"Antwerp","Location_RG_Country":"Belgium","Location_RG_Latitude":51.219,"Location_RG_Longitude":4.403},{"_id":"66be08240d51b213e01f00e1","Location_RG_ID":"NDUIFL1V","Location_RG_City":"Arlon","Location_RG_Country":"Belgium","Location_RG_Latitude":49.685,"Location_RG_Longitude":5.811},{"_id":"66be08250d51b213e01f00e3","Location_RG_ID":"YebJ0tMH","Location_RG_City":"Bastogne","Location_RG_Country":"Belgium","Location_RG_Latitude":50.001,"Location_RG_Longitude":5.715},{"_id":"66be08250d51b213e01f00e5","Location_RG_ID":"BAOQf94z","Location_RG_City":"Bekkevoort","Location_RG_Country":"Belgium","Location_RG_Latitude":50.944,"Location_RG_Longitude":4.974},{"_id":"66be08250d51b213e01f00e7","Location_RG_ID":"ZFhxSCh3","Location_RG_City":"Braine-l'Alleud","Location_RG_Country":"Belgium","Location_RG_Latitude":50.685,"Location_RG_Longitude":4.378},{"_id":"66be08250d51b213e01f00e9","Location_RG_ID":"K2GKYLRj","Location_RG_City":"Brasschaat","Location_RG_Country":"Belgium","Location_RG_Latitude":51.292,"Location_RG_Longitude":4.494},{"_id":"66be08260d51b213e01f00ed","Location_RG_ID":"GjLx7lRY","Location_RG_City":"Bruges","Location_RG_Country":"Belgium","Location_RG_Latitude":51.209,"Location_RG_Longitude":3.225},{"_id":"66be08260d51b213e01f00ef","Location_RG_ID":"rvVa25hx","Location_RG_City":"Brussels","Location_RG_Country":"Belgium","Location_RG_Latitude":50.85,"Location_RG_Longitude":4.352},{"_id":"66be08260d51b213e01f00f1","Location_RG_ID":"Xk1uifTl","Location_RG_City":"Charleroi","Location_RG_Country":"Belgium","Location_RG_Latitude":50.411,"Location_RG_Longitude":4.445},{"_id":"66be08260d51b213e01f00f4","Location_RG_ID":"AIvwHm2d","Location_RG_City":"Courcelles","Location_RG_Country":"Belgium","Location_RG_Latitude":50.463,"Location_RG_Longitude":4.333},{"_id":"66be08260d51b213e01f00f6","Location_RG_ID":"e5bBqsAj","Location_RG_City":"Deerlijk","Location_RG_Country":"Belgium","Location_RG_Latitude":50.854,"Location_RG_Longitude":3.353},{"_id":"66be08270d51b213e01f00f8","Location_RG_ID":"eR1rzm9s","Location_RG_City":"Dendermonde","Location_RG_Country":"Belgium","Location_RG_Latitude":51.026,"Location_RG_Longitude":4.102},{"_id":"66be08270d51b213e01f00fb","Location_RG_ID":"LlVCpmns","Location_RG_City":"Diest","Location_RG_Country":"Belgium","Location_RG_Latitude":50.99,"Location_RG_Longitude":5.05},{"_id":"66be08270d51b213e01f00fd","Location_RG_ID":"lMxySzgj","Location_RG_City":"Eeklo","Location_RG_Country":"Belgium","Location_RG_Latitude":51.185,"Location_RG_Longitude":3.564},{"_id":"66be08270d51b213e01f00ff","Location_RG_ID":"Byxfwvyw","Location_RG_City":"Eghezee","Location_RG_Country":"Belgium","Location_RG_Latitude":50.593,"Location_RG_Longitude":4.904},{"_id":"66be08280d51b213e01f0101","Location_RG_ID":"IcUITJhG","Location_RG_City":"Eupen","Location_RG_Country":"Belgium","Location_RG_Latitude":50.629,"Location_RG_Longitude":6.034},{"_id":"66be08280d51b213e01f0104","Location_RG_ID":"2dTXqWng","Location_RG_City":"Farciennes","Location_RG_Country":"Belgium","Location_RG_Latitude":50.43,"Location_RG_Longitude":4.542},{"_id":"66be08280d51b213e01f0107","Location_RG_ID":"wC9fXhTq","Location_RG_City":"Frasnes-lez-Anvaing","Location_RG_Country":"Belgium","Location_RG_Latitude":50.665,"Location_RG_Longitude":3.615},{"_id":"66be08280d51b213e01f0109","Location_RG_ID":"eJDFPSFo","Location_RG_City":"Genk","Location_RG_Country":"Belgium","Location_RG_Latitude":50.966,"Location_RG_Longitude":5.502},{"_id":"66be08280d51b213e01f010b","Location_RG_ID":"fDBMqXTG","Location_RG_City":"Geraardsbergen","Location_RG_Country":"Belgium","Location_RG_Latitude":50.771,"Location_RG_Longitude":3.875},{"_id":"66be08290d51b213e01f010d","Location_RG_ID":"6lbGlnG1","Location_RG_City":"Ghent","Location_RG_Country":"Belgium","Location_RG_Latitude":51.054,"Location_RG_Longitude":3.717},{"_id":"66be08290d51b213e01f0110","Location_RG_ID":"bDS059OM","Location_RG_City":"Haaltert","Location_RG_Country":"Belgium","Location_RG_Latitude":50.903,"Location_RG_Longitude":4.006},{"_id":"66be08290d51b213e01f0112","Location_RG_ID":"vvnrHoOj","Location_RG_City":"Halle","Location_RG_Country":"Belgium","Location_RG_Latitude":50.738,"Location_RG_Longitude":4.233},{"_id":"66be082a0d51b213e01f0114","Location_RG_ID":"TCdVZEIZ","Location_RG_City":"Ham","Location_RG_Country":"Belgium","Location_RG_Latitude":51.104,"Location_RG_Longitude":5.177},{"_id":"66be082a0d51b213e01f0116","Location_RG_ID":"D1UGrXXn","Location_RG_City":"Hasselt","Location_RG_Country":"Belgium","Location_RG_Latitude":50.931,"Location_RG_Longitude":5.333},{"_id":"66be082a0d51b213e01f0118","Location_RG_ID":"cB7AWmzN","Location_RG_City":"Herentals","Location_RG_Country":"Belgium","Location_RG_Latitude":51.177,"Location_RG_Longitude":4.836},{"_id":"66be082a0d51b213e01f011a","Location_RG_ID":"QeJ5iujO","Location_RG_City":"Hoogstraten","Location_RG_Country":"Belgium","Location_RG_Latitude":51.402,"Location_RG_Longitude":4.762},{"_id":"66be082b0d51b213e01f011c","Location_RG_ID":"AD9XLmJy","Location_RG_City":"Izegem","Location_RG_Country":"Belgium","Location_RG_Latitude":50.918,"Location_RG_Longitude":3.213},{"_id":"66be082b0d51b213e01f011f","Location_RG_ID":"pUuoVCYp","Location_RG_City":"Kapellen","Location_RG_Country":"Belgium","Location_RG_Latitude":51.314,"Location_RG_Longitude":4.432},{"_id":"66be082b0d51b213e01f0122","Location_RG_ID":"X9IWfM5Y","Location_RG_City":"Kasterlee","Location_RG_Country":"Belgium","Location_RG_Latitude":51.241,"Location_RG_Longitude":4.967},{"_id":"66be082b0d51b213e01f0124","Location_RG_ID":"NVyzQqpT","Location_RG_City":"Kinrooi","Location_RG_Country":"Belgium","Location_RG_Latitude":51.146,"Location_RG_Longitude":5.741},{"_id":"66be082b0d51b213e01f0127","Location_RG_ID":"TATx616l","Location_RG_City":"Koekelare","Location_RG_Country":"Belgium","Location_RG_Latitude":51.093,"Location_RG_Longitude":2.98},{"_id":"66be082c0d51b213e01f012a","Location_RG_ID":"T0fkMhvB","Location_RG_City":"Kortrijk","Location_RG_Country":"Belgium","Location_RG_Latitude":50.82,"Location_RG_Longitude":3.258},{"_id":"66be082c0d51b213e01f012c","Location_RG_ID":"XKimaL_g","Location_RG_City":"Lanaken","Location_RG_Country":"Belgium","Location_RG_Latitude":50.892,"Location_RG_Longitude":5.657},{"_id":"66be082c0d51b213e01f012e","Location_RG_ID":"QqxV5JW5","Location_RG_City":"Lesve","Location_RG_Country":"Belgium","Location_RG_Latitude":50.377,"Location_RG_Longitude":4.778},{"_id":"66be082c0d51b213e01f0130","Location_RG_ID":"DY1XDOuR","Location_RG_City":"Leuven","Location_RG_Country":"Belgium","Location_RG_Latitude":50.88,"Location_RG_Longitude":4.701},{"_id":"66be082d0d51b213e01f0132","Location_RG_ID":"HM5LL1pm","Location_RG_City":"Liège","Location_RG_Country":"Belgium","Location_RG_Latitude":50.633,"Location_RG_Longitude":5.58},{"_id":"66be082d0d51b213e01f0134","Location_RG_ID":"ewTHZ2KJ","Location_RG_City":"Loncin","Location_RG_Country":"Belgium","Location_RG_Latitude":50.666,"Location_RG_Longitude":5.505},{"_id":"66be082d0d51b213e01f0137","Location_RG_ID":"m9k0j2ID","Location_RG_City":"Malle","Location_RG_Country":"Belgium","Location_RG_Latitude":51.297,"Location_RG_Longitude":4.695},{"_id":"66be082d0d51b213e01f0139","Location_RG_ID":"CLsgkSnM","Location_RG_City":"Mechelen","Location_RG_Country":"Belgium","Location_RG_Latitude":51.026,"Location_RG_Longitude":4.478},{"_id":"66be082e0d51b213e01f013b","Location_RG_ID":"F6MTClt0","Location_RG_City":"Meise","Location_RG_Country":"Belgium","Location_RG_Latitude":50.936,"Location_RG_Longitude":4.33},{"_id":"66be082e0d51b213e01f013d","Location_RG_ID":"gEARzYoE","Location_RG_City":"Merchtem","Location_RG_Country":"Belgium","Location_RG_Latitude":50.958,"Location_RG_Longitude":4.232},{"_id":"66be082e0d51b213e01f013f","Location_RG_ID":"tDXiwNEe","Location_RG_City":"Meulebeke","Location_RG_Country":"Belgium","Location_RG_Latitude":50.951,"Location_RG_Longitude":3.286},{"_id":"66be082e0d51b213e01f0141","Location_RG_ID":"1wI3IMA-","Location_RG_City":"Middelkerke","Location_RG_Country":"Belgium","Location_RG_Latitude":51.185,"Location_RG_Longitude":2.821},{"_id":"66be082e0d51b213e01f0143","Location_RG_ID":"dMFO38F6","Location_RG_City":"Mol","Location_RG_Country":"Belgium","Location_RG_Latitude":41.708,"Location_RG_Longitude":-86.895},{"_id":"66be082f0d51b213e01f0145","Location_RG_ID":"KueZ8lkG","Location_RG_City":"Mons","Location_RG_Country":"Belgium","Location_RG_Latitude":50.454,"Location_RG_Longitude":3.957},{"_id":"66be08300d51b213e01f0149","Location_RG_ID":"nfRRKSsS","Location_RG_City":"Mont-Saint-Guibert","Location_RG_Country":"Belgium","Location_RG_Latitude":50.636,"Location_RG_Longitude":4.612},{"_id":"66be08300d51b213e01f014b","Location_RG_ID":"U37EwOZf","Location_RG_City":"Namur","Location_RG_Country":"Belgium","Location_RG_Latitude":50.467,"Location_RG_Longitude":4.872},{"_id":"66be08300d51b213e01f014e","Location_RG_ID":"i4Ns1Pj9","Location_RG_City":"Ninove","Location_RG_Country":"Belgium","Location_RG_Latitude":50.834,"Location_RG_Longitude":4.019},{"_id":"66be08310d51b213e01f0150","Location_RG_ID":"53bMpo1h","Location_RG_City":"Orp-Jauche","Location_RG_Country":"Belgium","Location_RG_Latitude":50.693,"Location_RG_Longitude":4.985},{"_id":"66be08310d51b213e01f0152","Location_RG_ID":"xtKzskUi","Location_RG_City":"Ostend","Location_RG_Country":"Belgium","Location_RG_Latitude":51.215,"Location_RG_Longitude":2.929},{"_id":"66be08310d51b213e01f0155","Location_RG_ID":"bWuEHiSJ","Location_RG_City":"Oud-Turnhout","Location_RG_Country":"Belgium","Location_RG_Latitude":51.318,"Location_RG_Longitude":4.983},{"_id":"66be08310d51b213e01f0157","Location_RG_ID":"WQFFANKl","Location_RG_City":"Perwez","Location_RG_Country":"Belgium","Location_RG_Latitude":50.624,"Location_RG_Longitude":4.815},{"_id":"66be08310d51b213e01f0159","Location_RG_ID":"aChAukbW","Location_RG_City":"Roeselare","Location_RG_Country":"Belgium","Location_RG_Latitude":50.95,"Location_RG_Longitude":3.129},{"_id":"66be08320d51b213e01f015b","Location_RG_ID":"BzZ6Bd6Z","Location_RG_City":"Seraing","Location_RG_Country":"Belgium","Location_RG_Latitude":50.584,"Location_RG_Longitude":5.5},{"_id":"66be08320d51b213e01f015f","Location_RG_ID":"oJRZFBch","Location_RG_City":"Sint-Niklaas","Location_RG_Country":"Belgium","Location_RG_Latitude":51.156,"Location_RG_Longitude":4.154},{"_id":"66be08320d51b213e01f0161","Location_RG_ID":"sJ0kICJc","Location_RG_City":"Sint-Truiden","Location_RG_Country":"Belgium","Location_RG_Latitude":50.816,"Location_RG_Longitude":5.186},{"_id":"66be08320d51b213e01f0163","Location_RG_ID":"Ca7kC8QH","Location_RG_City":"Sprimont","Location_RG_Country":"Belgium","Location_RG_Latitude":50.507,"Location_RG_Longitude":5.662},{"_id":"66be08330d51b213e01f0165","Location_RG_ID":"UD_K9G82","Location_RG_City":"Tielt","Location_RG_Country":"Belgium","Location_RG_Latitude":51,"Location_RG_Longitude":3.326},{"_id":"66be08330d51b213e01f0167","Location_RG_ID":"7upmMAPr","Location_RG_City":"Waregem","Location_RG_Country":"Belgium","Location_RG_Latitude":50.887,"Location_RG_Longitude":3.423},{"_id":"66be08330d51b213e01f0169","Location_RG_ID":"y42nMv8D","Location_RG_City":"Westerlo","Location_RG_Country":"Belgium","Location_RG_Latitude":51.09,"Location_RG_Longitude":4.914},{"_id":"66be08330d51b213e01f016b","Location_RG_ID":"pOKvoJ1f","Location_RG_City":"Willebroek","Location_RG_Country":"Belgium","Location_RG_Latitude":51.06,"Location_RG_Longitude":4.364},{"_id":"66be08330d51b213e01f016f","Location_RG_ID":"MooHjrtJ","Location_RG_City":"Zele","Location_RG_Country":"Belgium","Location_RG_Latitude":51.07,"Location_RG_Longitude":4.04},{"_id":"66be08340d51b213e01f0173","Location_RG_ID":"5KZiwgIV","Location_RG_City":"Zottegem","Location_RG_Country":"Belgium","Location_RG_Latitude":50.87,"Location_RG_Longitude":3.811},{"_id":"66be08340d51b213e01f0175","Location_RG_ID":"qde9V1ez","Location_RG_City":"Dangriga","Location_RG_Country":"Belize","Location_RG_Latitude":16.97,"Location_RG_Longitude":-88.232},{"_id":"66be08340d51b213e01f0177","Location_RG_ID":"85bbKolX","Location_RG_City":"Cotonou","Location_RG_Country":"Benin","Location_RG_Latitude":2.391,"Location_RG_Longitude":6.37},{"_id":"66be08340d51b213e01f0179","Location_RG_ID":"4FREF2Po","Location_RG_City":"Parakou","Location_RG_Country":"Benin","Location_RG_Latitude":9.347,"Location_RG_Longitude":2.609},{"_id":"66be08350d51b213e01f017b","Location_RG_ID":"oO4a1nEd","Location_RG_City":"Porto Novo","Location_RG_Country":"Benin","Location_RG_Latitude":6.497,"Location_RG_Longitude":2.629},{"_id":"66be08350d51b213e01f017f","Location_RG_ID":"5855GKgM","Location_RG_City":"Hamilton","Location_RG_Country":"Bermuda","Location_RG_Latitude":32.295,"Location_RG_Longitude":-64.781},{"_id":"66be08350d51b213e01f0181","Location_RG_ID":"zDych6pE","Location_RG_City":"Caranavi","Location_RG_Country":"Bolivia","Location_RG_Latitude":-15.836,"Location_RG_Longitude":-67.558},{"_id":"66be08350d51b213e01f0183","Location_RG_ID":"mWAwDGO3","Location_RG_City":"Cochabamba","Location_RG_Country":"Bolivia","Location_RG_Latitude":-17.414,"Location_RG_Longitude":-66.165},{"_id":"66be08360d51b213e01f0187","Location_RG_ID":"n42wLJaI","Location_RG_City":"El Alto","Location_RG_Country":"Bolivia","Location_RG_Latitude":-16.5,"Location_RG_Longitude":-68.215},{"_id":"66be08360d51b213e01f0189","Location_RG_ID":"OOQ73VGu","Location_RG_City":"La Paz","Location_RG_Country":"Bolivia","Location_RG_Latitude":-16.49,"Location_RG_Longitude":-68.119},{"_id":"66be08360d51b213e01f018b","Location_RG_ID":"HPzsyjq8","Location_RG_City":"Oruro","Location_RG_Country":"Bolivia","Location_RG_Latitude":-17.965,"Location_RG_Longitude":-67.106},{"_id":"66be08360d51b213e01f018d","Location_RG_ID":"WgDN3Xlp","Location_RG_City":"Potosi","Location_RG_Country":"Bolivia","Location_RG_Latitude":-19.572,"Location_RG_Longitude":-65.755},{"_id":"66be08360d51b213e01f018f","Location_RG_ID":"beWXZUZB","Location_RG_City":"Puerto Suárez","Location_RG_Country":"Bolivia","Location_RG_Latitude":-18.972,"Location_RG_Longitude":-57.814},{"_id":"66be08370d51b213e01f0191","Location_RG_ID":"hANwIXRB","Location_RG_City":"Santa Cruz de la Sierra","Location_RG_Country":"Bolivia","Location_RG_Latitude":-17.815,"Location_RG_Longitude":-63.156},{"_id":"66be08370d51b213e01f0193","Location_RG_ID":"zR5ctJoA","Location_RG_City":"Trinidad","Location_RG_Country":"Bolivia","Location_RG_Latitude":-14.832,"Location_RG_Longitude":-64.902},{"_id":"66be08370d51b213e01f0196","Location_RG_ID":"GfwecgE5","Location_RG_City":"Banja Luka","Location_RG_Country":"Bosnia and Herzegovina","Location_RG_Latitude":44.772,"Location_RG_Longitude":17.191},{"_id":"66be08370d51b213e01f0198","Location_RG_ID":"UpA1aDS7","Location_RG_City":"Bosanska Krupa","Location_RG_Country":"Bosnia and Herzegovina","Location_RG_Latitude":44.881,"Location_RG_Longitude":16.153},{"_id":"66be08380d51b213e01f019a","Location_RG_ID":"afm812Um","Location_RG_City":"Doboj","Location_RG_Country":"Bosnia and Herzegovina","Location_RG_Latitude":44.74,"Location_RG_Longitude":18.084},{"_id":"66be08380d51b213e01f019c","Location_RG_ID":"MU_PgJMA","Location_RG_City":"Grude","Location_RG_Country":"Bosnia and Herzegovina","Location_RG_Latitude":43.375,"Location_RG_Longitude":17.41},{"_id":"66be08380d51b213e01f019e","Location_RG_ID":"AmsA_cxH","Location_RG_City":"Ilijaš","Location_RG_Country":"Bosnia and Herzegovina","Location_RG_Latitude":43.949,"Location_RG_Longitude":18.265},{"_id":"66be08380d51b213e01f01a0","Location_RG_ID":"VonhmCKy","Location_RG_City":"Kalesija","Location_RG_Country":"Bosnia and Herzegovina","Location_RG_Latitude":44.443,"Location_RG_Longitude":18.899},{"_id":"66be08380d51b213e01f01a2","Location_RG_ID":"bDVsvHXc","Location_RG_City":"Kozarska Dubica","Location_RG_Country":"Bosnia and Herzegovina","Location_RG_Latitude":45.178,"Location_RG_Longitude":16.813},{"_id":"66be08390d51b213e01f01a4","Location_RG_ID":"eXzg1nrU","Location_RG_City":"Metković","Location_RG_Country":"Bosnia and Herzegovina","Location_RG_Latitude":43.053,"Location_RG_Longitude":17.649},{"_id":"66be08390d51b213e01f01a6","Location_RG_ID":"0A8Gd8kk","Location_RG_City":"Mostar","Location_RG_Country":"Bosnia and Herzegovina","Location_RG_Latitude":43.344,"Location_RG_Longitude":17.808},{"_id":"66be08390d51b213e01f01a8","Location_RG_ID":"hZoYGclZ","Location_RG_City":"Odžak","Location_RG_Country":"Bosnia and Herzegovina","Location_RG_Latitude":45.01,"Location_RG_Longitude":18.326},{"_id":"66be08390d51b213e01f01aa","Location_RG_ID":"H64isEiM","Location_RG_City":"Prnjavor","Location_RG_Country":"Bosnia and Herzegovina","Location_RG_Latitude":44.868,"Location_RG_Longitude":17.662},{"_id":"66be083a0d51b213e01f01ae","Location_RG_ID":"pUe3ikei","Location_RG_City":"Sarajevo","Location_RG_Country":"Bosnia and Herzegovina","Location_RG_Latitude":43.856,"Location_RG_Longitude":18.413},{"_id":"66be083a0d51b213e01f01b0","Location_RG_ID":"qUzrBDrx","Location_RG_City":"Travnik","Location_RG_Country":"Bosnia and Herzegovina","Location_RG_Latitude":44.229,"Location_RG_Longitude":17.643},{"_id":"66be083a0d51b213e01f01b2","Location_RG_ID":"gAluNniS","Location_RG_City":"Tuzla","Location_RG_Country":"Bosnia and Herzegovina","Location_RG_Latitude":44.538,"Location_RG_Longitude":18.674},{"_id":"66be083a0d51b213e01f01b4","Location_RG_ID":"74LDYTCI","Location_RG_City":"Ugljevik","Location_RG_Country":"Bosnia and Herzegovina","Location_RG_Latitude":44.694,"Location_RG_Longitude":18.996},{"_id":"66be083a0d51b213e01f01b6","Location_RG_ID":"HiDdCLFT","Location_RG_City":"Zenica","Location_RG_Country":"Bosnia and Herzegovina","Location_RG_Latitude":44.203,"Location_RG_Longitude":17.908},{"_id":"66be083b0d51b213e01f01b9","Location_RG_ID":"aFth7rz-","Location_RG_City":"Abadia dos Dourados MG","Location_RG_Country":"Brazil","Location_RG_Latitude":-18.487,"Location_RG_Longitude":-47.403},{"_id":"66be083b0d51b213e01f01bc","Location_RG_ID":"TEtrZbm6","Location_RG_City":"Afogados da Ingazeira PE","Location_RG_Country":"Brazil","Location_RG_Latitude":-7.748,"Location_RG_Longitude":-37.635},{"_id":"66be083b0d51b213e01f01be","Location_RG_ID":"jVzrUH6p","Location_RG_City":"Alagoinhas BA","Location_RG_Country":"Brazil","Location_RG_Latitude":-12.134,"Location_RG_Longitude":-38.421},{"_id":"66be083b0d51b213e01f01c0","Location_RG_ID":"vtDAyUaH","Location_RG_City":"Alfenas MG","Location_RG_Country":"Brazil","Location_RG_Latitude":-21.425,"Location_RG_Longitude":-45.947},{"_id":"66be083c0d51b213e01f01c2","Location_RG_ID":"sWQpOKjw","Location_RG_City":"Amambai MS","Location_RG_Country":"Brazil","Location_RG_Latitude":-23.108,"Location_RG_Longitude":-55.226},{"_id":"66be083c0d51b213e01f01c4","Location_RG_ID":"jAUpIlsL","Location_RG_City":"Americana SP","Location_RG_Country":"Brazil","Location_RG_Latitude":-22.738,"Location_RG_Longitude":-47.334},{"_id":"66be083c0d51b213e01f01c7","Location_RG_ID":"ssrW509V","Location_RG_City":"Antônio João MS","Location_RG_Country":"Brazil","Location_RG_Latitude":-22.188,"Location_RG_Longitude":-55.951},{"_id":"66be083c0d51b213e01f01ca","Location_RG_ID":"wryooyUk","Location_RG_City":"Anápolis GO","Location_RG_Country":"Brazil","Location_RG_Latitude":-16.329,"Location_RG_Longitude":-48.953},{"_id":"66be083d0d51b213e01f01cc","Location_RG_ID":"OiUzYyj8","Location_RG_City":"Aparecida de Goiânia GO","Location_RG_Country":"Brazil","Location_RG_Latitude":-16.82,"Location_RG_Longitude":-49.247},{"_id":"66be083d0d51b213e01f01ce","Location_RG_ID":"B1gznHGv","Location_RG_City":"Apiaí SP","Location_RG_Country":"Brazil","Location_RG_Latitude":-24.511,"Location_RG_Longitude":-48.845},{"_id":"66be083d0d51b213e01f01d0","Location_RG_ID":"Zn0x7j59","Location_RG_City":"Aquiraz CE","Location_RG_Country":"Brazil","Location_RG_Latitude":-3.9,"Location_RG_Longitude":-38.39},{"_id":"66be083d0d51b213e01f01d2","Location_RG_ID":"NnL7fCP1","Location_RG_City":"Aracaju SE","Location_RG_Country":"Brazil","Location_RG_Latitude":-10.947,"Location_RG_Longitude":-37.073},{"_id":"66be083d0d51b213e01f01d4","Location_RG_ID":"2D4UkCIW","Location_RG_City":"Araguaína TO","Location_RG_Country":"Brazil","Location_RG_Latitude":-7.193,"Location_RG_Longitude":-48.205},{"_id":"66be083e0d51b213e01f01d7","Location_RG_ID":"kJDkkpP4","Location_RG_City":"Araraquara SP","Location_RG_Country":"Brazil","Location_RG_Latitude":-21.785,"Location_RG_Longitude":-48.179},{"_id":"66be083e0d51b213e01f01d9","Location_RG_ID":"GRslfLoK","Location_RG_City":"Araxá MG","Location_RG_Country":"Brazil","Location_RG_Latitude":-19.591,"Location_RG_Longitude":-46.944},{"_id":"66be083e0d51b213e01f01db","Location_RG_ID":"2onl4oUW","Location_RG_City":"Araçatuba SP","Location_RG_Country":"Brazil","Location_RG_Latitude":-21.203,"Location_RG_Longitude":-50.454},{"_id":"66be083e0d51b213e01f01dd","Location_RG_ID":"lr9RPcGU","Location_RG_City":"Arcoverde PE","Location_RG_Country":"Brazil","Location_RG_Latitude":-8.418,"Location_RG_Longitude":-37.059},{"_id":"66be083f0d51b213e01f01df","Location_RG_ID":"nZkibyBP","Location_RG_City":"Artur Nogueira SP","Location_RG_Country":"Brazil","Location_RG_Latitude":-22.573,"Location_RG_Longitude":-47.173},{"_id":"66be083f0d51b213e01f01e2","Location_RG_ID":"BBHBj0Uv","Location_RG_City":"Assis SP","Location_RG_Country":"Brazil","Location_RG_Latitude":-22.66,"Location_RG_Longitude":-50.419},{"_id":"66be083f0d51b213e01f01e5","Location_RG_ID":"5j7wZVCb","Location_RG_City":"Bacuri MA","Location_RG_Country":"Brazil","Location_RG_Latitude":-1.728,"Location_RG_Longitude":-45.143},{"_id":"66be083f0d51b213e01f01e7","Location_RG_ID":"wDnKmL2z","Location_RG_City":"Bagé RS","Location_RG_Country":"Brazil","Location_RG_Latitude":-31.33,"Location_RG_Longitude":-54.101},{"_id":"66be083f0d51b213e01f01ea","Location_RG_ID":"blM2Qglp","Location_RG_City":"Balneário Camboriú SC","Location_RG_Country":"Brazil","Location_RG_Latitude":-26.993,"Location_RG_Longitude":-48.636},{"_id":"66be08400d51b213e01f01ed","Location_RG_ID":"A4StEoaP","Location_RG_City":"Bambuí MG","Location_RG_Country":"Brazil","Location_RG_Latitude":-20.015,"Location_RG_Longitude":-45.976},{"_id":"66be08400d51b213e01f01ef","Location_RG_ID":"ZWGY6yh5","Location_RG_City":"Barra Grande BA","Location_RG_Country":"Brazil","Location_RG_Latitude":-13.894,"Location_RG_Longitude":-38.951},{"_id":"66be08400d51b213e01f01f1","Location_RG_ID":"fx6t2Wzo","Location_RG_City":"Barra Mansa RJ","Location_RG_Country":"Brazil","Location_RG_Latitude":-22.541,"Location_RG_Longitude":-44.177},{"_id":"66be08400d51b213e01f01f3","Location_RG_ID":"byfQa7QP","Location_RG_City":"Barra Velha SC","Location_RG_Country":"Brazil","Location_RG_Latitude":-26.633,"Location_RG_Longitude":-48.685},{"_id":"66be08410d51b213e01f01f5","Location_RG_ID":"nlT49pqD","Location_RG_City":"Barra do Ribeiro RS","Location_RG_Country":"Brazil","Location_RG_Latitude":-30.3,"Location_RG_Longitude":-51.305},{"_id":"66be08410d51b213e01f01f7","Location_RG_ID":"BRBkNEwg","Location_RG_City":"Barão RS","Location_RG_Country":"Brazil","Location_RG_Latitude":-29.377,"Location_RG_Longitude":-51.498},{"_id":"66be08410d51b213e01f01f9","Location_RG_ID":"okl3Rcs7","Location_RG_City":"Batatais SP","Location_RG_Country":"Brazil","Location_RG_Latitude":-20.893,"Location_RG_Longitude":-47.593},{"_id":"66be08410d51b213e01f01fc","Location_RG_ID":"UwAJxB5R","Location_RG_City":"Batayporã MS","Location_RG_Country":"Brazil","Location_RG_Latitude":-22.295,"Location_RG_Longitude":-53.272},{"_id":"66be08410d51b213e01f01fe","Location_RG_ID":"W0hdQ35k","Location_RG_City":"Bauru SP","Location_RG_Country":"Brazil","Location_RG_Latitude":-22.315,"Location_RG_Longitude":-49.059},{"_id":"66be08420d51b213e01f0200","Location_RG_ID":"c7Bfz5CN","Location_RG_City":"Bebedouro SP","Location_RG_Country":"Brazil","Location_RG_Latitude":-20.95,"Location_RG_Longitude":-48.48},{"_id":"66be08420d51b213e01f0202","Location_RG_ID":"eCT4ymBs","Location_RG_City":"Belo Horizonte MG","Location_RG_Country":"Brazil","Location_RG_Latitude":-19.925,"Location_RG_Longitude":-43.935},{"_id":"66be08420d51b213e01f0204","Location_RG_ID":"ZpltcdTV","Location_RG_City":"Belém PA","Location_RG_Country":"Brazil","Location_RG_Latitude":-1.456,"Location_RG_Longitude":-48.49},{"_id":"66be08420d51b213e01f0206","Location_RG_ID":"Fr5CnKIx","Location_RG_City":"Bento Gonçalves RS","Location_RG_Country":"Brazil","Location_RG_Latitude":-29.167,"Location_RG_Longitude":-51.517},{"_id":"66be08430d51b213e01f0208","Location_RG_ID":"xmJF7ud2","Location_RG_City":"Bertioga SP","Location_RG_Country":"Brazil","Location_RG_Latitude":-23.832,"Location_RG_Longitude":-46.122},{"_id":"66be08430d51b213e01f020a","Location_RG_ID":"n9sR41ow","Location_RG_City":"Blumenau SC","Location_RG_Country":"Brazil","Location_RG_Latitude":-26.917,"Location_RG_Longitude":-49.072},{"_id":"66be08430d51b213e01f020c","Location_RG_ID":"mgtWDg45","Location_RG_City":"Boa Esperança MG","Location_RG_Country":"Brazil","Location_RG_Latitude":-21.093,"Location_RG_Longitude":-45.563},{"_id":"66be08430d51b213e01f020e","Location_RG_ID":"Bf1moQ5L","Location_RG_City":"Boca da Mata AL","Location_RG_Country":"Brazil","Location_RG_Latitude":-9.641,"Location_RG_Longitude":-36.217},{"_id":"66be08430d51b213e01f0211","Location_RG_ID":"qTmRlpFh","Location_RG_City":"Boca do Acre AM","Location_RG_Country":"Brazil","Location_RG_Latitude":-8.749,"Location_RG_Longitude":-67.4},{"_id":"66be08440d51b213e01f0214","Location_RG_ID":"mKyleeid","Location_RG_City":"Bom Sucesso MG","Location_RG_Country":"Brazil","Location_RG_Latitude":-21.035,"Location_RG_Longitude":-44.759},{"_id":"66be08440d51b213e01f0216","Location_RG_ID":"MxWChFEM","Location_RG_City":"Botucatu SP","Location_RG_Country":"Brazil","Location_RG_Latitude":-22.884,"Location_RG_Longitude":-48.444},{"_id":"66be08440d51b213e01f0218","Location_RG_ID":"Thk7BkEO","Location_RG_City":"Bragança Paulista SP","Location_RG_Country":"Brazil","Location_RG_Latitude":-22.953,"Location_RG_Longitude":-46.542},{"_id":"66be08440d51b213e01f021a","Location_RG_ID":"JA4qa8gk","Location_RG_City":"Brasília DF","Location_RG_Country":"Brazil","Location_RG_Latitude":-15.794,"Location_RG_Longitude":-47.882},{"_id":"66be08450d51b213e01f021c","Location_RG_ID":"mW11Khk5","Location_RG_City":"Brusque SC","Location_RG_Country":"Brazil","Location_RG_Latitude":-27.098,"Location_RG_Longitude":-48.911},{"_id":"66be08450d51b213e01f021f","Location_RG_ID":"tMSfeUyo","Location_RG_City":"Buritis MG","Location_RG_Country":"Brazil","Location_RG_Latitude":-19.976,"Location_RG_Longitude":-43.968},{"_id":"66be08450d51b213e01f0222","Location_RG_ID":"8E8DMZMo","Location_RG_City":"Cabreúva SP","Location_RG_Country":"Brazil","Location_RG_Latitude":-23.306,"Location_RG_Longitude":-47.137},{"_id":"66be08460d51b213e01f0224","Location_RG_ID":"AE6t3Fou","Location_RG_City":"Cachoeira Paulista SP","Location_RG_Country":"Brazil","Location_RG_Latitude":-22.663,"Location_RG_Longitude":-45.007},{"_id":"66be08460d51b213e01f0227","Location_RG_ID":"gtvBZuQY","Location_RG_City":"Camaragibe PE","Location_RG_Country":"Brazil","Location_RG_Latitude":-8.024,"Location_RG_Longitude":-34.979},{"_id":"66be08460d51b213e01f0229","Location_RG_ID":"Zv4I61lS","Location_RG_City":"Campinas SP","Location_RG_Country":"Brazil","Location_RG_Latitude":-22.91,"Location_RG_Longitude":-47.063},{"_id":"66be08460d51b213e01f022c","Location_RG_ID":"BkXw5L9w","Location_RG_City":"Campo Grande MS","Location_RG_Country":"Brazil","Location_RG_Latitude":-20.47,"Location_RG_Longitude":-54.62},{"_id":"66be08470d51b213e01f022e","Location_RG_ID":"ggHSZevL","Location_RG_City":"Campo Mourão PR","Location_RG_Country":"Brazil","Location_RG_Latitude":-24.044,"Location_RG_Longitude":-52.378},{"_id":"66be08470d51b213e01f0230","Location_RG_ID":"-yWoQbQS","Location_RG_City":"Campos Novos Paulista SP","Location_RG_Country":"Brazil","Location_RG_Latitude":-22.602,"Location_RG_Longitude":-49.999},{"_id":"66be08470d51b213e01f0232","Location_RG_ID":"B7OFDmGy","Location_RG_City":"Campos de Júlio MT","Location_RG_Country":"Brazil","Location_RG_Latitude":-13.721,"Location_RG_Longitude":-59.26},{"_id":"66be08470d51b213e01f0234","Location_RG_ID":"3Csw6QCz","Location_RG_City":"Campos dos Goytacazes RJ","Location_RG_Country":"Brazil","Location_RG_Latitude":-21.763,"Location_RG_Longitude":-41.319},{"_id":"66be08480d51b213e01f0236","Location_RG_ID":"jmD84vdX","Location_RG_City":"Candelária RS","Location_RG_Country":"Brazil","Location_RG_Latitude":-29.669,"Location_RG_Longitude":-52.788},{"_id":"66be08480d51b213e01f0238","Location_RG_ID":"gfN1mqON","Location_RG_City":"Canela RS","Location_RG_Country":"Brazil","Location_RG_Latitude":-29.358,"Location_RG_Longitude":-50.783},{"_id":"66be08480d51b213e01f023b","Location_RG_ID":"n7Zw3BUx","Location_RG_City":"Capinópolis MG","Location_RG_Country":"Brazil","Location_RG_Latitude":-18.687,"Location_RG_Longitude":-49.571},{"_id":"66be08480d51b213e01f023d","Location_RG_ID":"84V91DyH","Location_RG_City":"Capão da Canoa RS","Location_RG_Country":"Brazil","Location_RG_Latitude":-29.765,"Location_RG_Longitude":-50.029},{"_id":"66be08490d51b213e01f023f","Location_RG_ID":"9AgfvSgh","Location_RG_City":"Caratinga MG","Location_RG_Country":"Brazil","Location_RG_Latitude":-19.789,"Location_RG_Longitude":-42.136},{"_id":"66be08490d51b213e01f0242","Location_RG_ID":"SelKPIWz","Location_RG_City":"Caruaru PE","Location_RG_Country":"Brazil","Location_RG_Latitude":-8.285,"Location_RG_Longitude":-35.97},{"_id":"66be08490d51b213e01f0245","Location_RG_ID":"TaXPW1ZQ","Location_RG_City":"Caxias do Sul RS","Location_RG_Country":"Brazil","Location_RG_Latitude":-29.163,"Location_RG_Longitude":-51.18},{"_id":"66be08490d51b213e01f0247","Location_RG_ID":"7sxFUG9q","Location_RG_City":"Chalé MG","Location_RG_Country":"Brazil","Location_RG_Latitude":-20.044,"Location_RG_Longitude":-41.689},{"_id":"66be08490d51b213e01f024a","Location_RG_ID":"1XO66IyQ","Location_RG_City":"Chapecó SC","Location_RG_Country":"Brazil","Location_RG_Latitude":-27.101,"Location_RG_Longitude":-52.616},{"_id":"66be084a0d51b213e01f024d","Location_RG_ID":"SSr-Gi3t","Location_RG_City":"Cianorte PR","Location_RG_Country":"Brazil","Location_RG_Latitude":-23.663,"Location_RG_Longitude":-52.61},{"_id":"66be084a0d51b213e01f024f","Location_RG_ID":"KP1unFCx","Location_RG_City":"Cidreira RS","Location_RG_Country":"Brazil","Location_RG_Latitude":-30.176,"Location_RG_Longitude":-50.21},{"_id":"66be084a0d51b213e01f0251","Location_RG_ID":"nwq4u2at","Location_RG_City":"Conselheiro Lafaiete MG","Location_RG_Country":"Brazil","Location_RG_Latitude":-20.664,"Location_RG_Longitude":-43.785},{"_id":"66be084a0d51b213e01f0253","Location_RG_ID":"9KZKEcPS","Location_RG_City":"Contagem MG","Location_RG_Country":"Brazil","Location_RG_Latitude":-19.916,"Location_RG_Longitude":-44.081},{"_id":"66be084b0d51b213e01f0255","Location_RG_ID":"2WdKpwD5","Location_RG_City":"Coromandel MG","Location_RG_Country":"Brazil","Location_RG_Latitude":-18.479,"Location_RG_Longitude":-47.198},{"_id":"66be084b0d51b213e01f0257","Location_RG_ID":"CcpvqAGw","Location_RG_City":"Cotia SP","Location_RG_Country":"Brazil","Location_RG_Latitude":-23.603,"Location_RG_Longitude":-46.92},{"_id":"66be084b0d51b213e01f0259","Location_RG_ID":"vKytir9x","Location_RG_City":"Cotijuba PA","Location_RG_Country":"Brazil","Location_RG_Latitude":-1.262,"Location_RG_Longitude":-48.561},{"_id":"66be084b0d51b213e01f025c","Location_RG_ID":"zgeZo5ve","Location_RG_City":"Criciúma SC","Location_RG_Country":"Brazil","Location_RG_Latitude":-28.673,"Location_RG_Longitude":-49.373},{"_id":"66be084b0d51b213e01f025e","Location_RG_ID":"ylQLNOWn","Location_RG_City":"Cruzeiro SP","Location_RG_Country":"Brazil","Location_RG_Latitude":-22.573,"Location_RG_Longitude":-44.969},{"_id":"66be084c0d51b213e01f0260","Location_RG_ID":"xRPKqiN4","Location_RG_City":"Cubatão SP","Location_RG_Country":"Brazil","Location_RG_Latitude":-23.892,"Location_RG_Longitude":-46.424},{"_id":"66be084c0d51b213e01f0262","Location_RG_ID":"cWKknKtn","Location_RG_City":"Cupira PE","Location_RG_Country":"Brazil","Location_RG_Latitude":-8.611,"Location_RG_Longitude":-35.952},{"_id":"66be084c0d51b213e01f0264","Location_RG_ID":"rUm92TN1","Location_RG_City":"Curitiba PR","Location_RG_Country":"Brazil","Location_RG_Latitude":-25.429,"Location_RG_Longitude":-49.267},{"_id":"66be084c0d51b213e01f0266","Location_RG_ID":"PaKHqAXD","Location_RG_City":"Currais Novos RN","Location_RG_Country":"Brazil","Location_RG_Latitude":-6.255,"Location_RG_Longitude":-36.514},{"_id":"66be084d0d51b213e01f0268","Location_RG_ID":"F8f5xz9e","Location_RG_City":"Divinópolis MG","Location_RG_Country":"Brazil","Location_RG_Latitude":-20.145,"Location_RG_Longitude":-44.892},{"_id":"66be084d0d51b213e01f026a","Location_RG_ID":"PEQigHjC","Location_RG_City":"Dois Vizinhos PR","Location_RG_Country":"Brazil","Location_RG_Latitude":-25.747,"Location_RG_Longitude":-53.062},{"_id":"66be084d0d51b213e01f026c","Location_RG_ID":"2PsMAdPx","Location_RG_City":"Domingos Martins ES","Location_RG_Country":"Brazil","Location_RG_Latitude":-20.361,"Location_RG_Longitude":-40.66},{"_id":"66be084d0d51b213e01f026f","Location_RG_ID":"8CKRVU3Z","Location_RG_City":"Dourados MS","Location_RG_Country":"Brazil","Location_RG_Latitude":-22.224,"Location_RG_Longitude":-54.813},{"_id":"66be084e0d51b213e01f0272","Location_RG_ID":"3x3ASHrR","Location_RG_City":"Dracena SP","Location_RG_Country":"Brazil","Location_RG_Latitude":-21.487,"Location_RG_Longitude":-51.537},{"_id":"66be084e0d51b213e01f0274","Location_RG_ID":"p6zv0Huz","Location_RG_City":"Dumont SP","Location_RG_Country":"Brazil","Location_RG_Latitude":-21.239,"Location_RG_Longitude":-47.975},{"_id":"66be084e0d51b213e01f0276","Location_RG_ID":"drGrXugv","Location_RG_City":"Dário Meira BA","Location_RG_Country":"Brazil","Location_RG_Latitude":-14.433,"Location_RG_Longitude":-39.904},{"_id":"66be084e0d51b213e01f0278","Location_RG_ID":"6LfOutb1","Location_RG_City":"Erechim RS","Location_RG_Country":"Brazil","Location_RG_Latitude":-27.635,"Location_RG_Longitude":-52.274},{"_id":"66be084f0d51b213e01f027a","Location_RG_ID":"vQt1YHTE","Location_RG_City":"Fartura SP","Location_RG_Country":"Brazil","Location_RG_Latitude":-23.388,"Location_RG_Longitude":-49.508},{"_id":"66be084f0d51b213e01f027c","Location_RG_ID":"s5wrGXTT","Location_RG_City":"Feira de Santana BA","Location_RG_Country":"Brazil","Location_RG_Latitude":-12.26,"Location_RG_Longitude":-38.965},{"_id":"66be084f0d51b213e01f027f","Location_RG_ID":"EYzTFymn","Location_RG_City":"Fernandópolis SP","Location_RG_Country":"Brazil","Location_RG_Latitude":-20.284,"Location_RG_Longitude":-50.247},{"_id":"66be084f0d51b213e01f0282","Location_RG_ID":"FlL4ab42","Location_RG_City":"Florianópolis SC","Location_RG_Country":"Brazil","Location_RG_Latitude":-27.595,"Location_RG_Longitude":-48.548},{"_id":"66be084f0d51b213e01f0284","Location_RG_ID":"bXizVMNq","Location_RG_City":"Formiga MG","Location_RG_Country":"Brazil","Location_RG_Latitude":-20.465,"Location_RG_Longitude":-45.426},{"_id":"66be08500d51b213e01f0286","Location_RG_ID":"8auDzHOD","Location_RG_City":"Fortaleza CE","Location_RG_Country":"Brazil","Location_RG_Latitude":-3.732,"Location_RG_Longitude":-38.527},{"_id":"66be08500d51b213e01f0289","Location_RG_ID":"UEYdVHRM","Location_RG_City":"Franca SP","Location_RG_Country":"Brazil","Location_RG_Latitude":-20.539,"Location_RG_Longitude":-47.401},{"_id":"66be08500d51b213e01f028b","Location_RG_ID":"CNR5T9ql","Location_RG_City":"Franco da Rocha SP","Location_RG_Country":"Brazil","Location_RG_Latitude":-23.323,"Location_RG_Longitude":-46.73},{"_id":"66be08500d51b213e01f028d","Location_RG_ID":"37NweTIn","Location_RG_City":"Garanhuns PE","Location_RG_Country":"Brazil","Location_RG_Latitude":-8.883,"Location_RG_Longitude":-36.497},{"_id":"66be08510d51b213e01f028f","Location_RG_ID":"ayr9OXN8","Location_RG_City":"Garopaba SC","Location_RG_Country":"Brazil","Location_RG_Latitude":-28.027,"Location_RG_Longitude":-48.619},{"_id":"66be08510d51b213e01f0292","Location_RG_ID":"Dl7h95vw","Location_RG_City":"Goiânia GO","Location_RG_Country":"Brazil","Location_RG_Latitude":-16.687,"Location_RG_Longitude":-49.265},{"_id":"66be08510d51b213e01f0294","Location_RG_ID":"M0JhuioA","Location_RG_City":"Governador Valadares MG","Location_RG_Country":"Brazil","Location_RG_Latitude":-18.855,"Location_RG_Longitude":-41.956},{"_id":"66be08510d51b213e01f0296","Location_RG_ID":"mSpD1yZJ","Location_RG_City":"Guaiúba CE","Location_RG_Country":"Brazil","Location_RG_Latitude":-4.042,"Location_RG_Longitude":-38.634},{"_id":"66be08510d51b213e01f0298","Location_RG_ID":"8AoLdxWe","Location_RG_City":"Guarapari ES","Location_RG_Country":"Brazil","Location_RG_Latitude":-20.674,"Location_RG_Longitude":-40.5},{"_id":"66be08520d51b213e01f029a","Location_RG_ID":"IKud2G3k","Location_RG_City":"Guarapuava PR","Location_RG_Country":"Brazil","Location_RG_Latitude":-25.391,"Location_RG_Longitude":-51.463},{"_id":"66be08520d51b213e01f029c","Location_RG_ID":"fVPq9WLV","Location_RG_City":"Guaratinguetá SP","Location_RG_Country":"Brazil","Location_RG_Latitude":-22.808,"Location_RG_Longitude":-45.194},{"_id":"66be08520d51b213e01f029f","Location_RG_ID":"UVembplK","Location_RG_City":"Guarulhos SP","Location_RG_Country":"Brazil","Location_RG_Latitude":-23.454,"Location_RG_Longitude":-46.534},{"_id":"66be08520d51b213e01f02a1","Location_RG_ID":"5c7LdgGw","Location_RG_City":"Guaíba RS","Location_RG_Country":"Brazil","Location_RG_Latitude":-30.109,"Location_RG_Longitude":-51.324},{"_id":"66be08530d51b213e01f02a3","Location_RG_ID":"ou-k8Sv6","Location_RG_City":"Guaíra PR","Location_RG_Country":"Brazil","Location_RG_Latitude":-24.084,"Location_RG_Longitude":-54.244},{"_id":"66be08530d51b213e01f02a7","Location_RG_ID":"pmyyP4LA","Location_RG_City":"Heliópolis BA","Location_RG_Country":"Brazil","Location_RG_Latitude":-10.679,"Location_RG_Longitude":-38.282},{"_id":"66be08530d51b213e01f02a9","Location_RG_ID":"mI3SZwEe","Location_RG_City":"Herval RS","Location_RG_Country":"Brazil","Location_RG_Latitude":-32.029,"Location_RG_Longitude":-53.394},{"_id":"66be08530d51b213e01f02ab","Location_RG_ID":"8d4CshYV","Location_RG_City":"Ibititá BA","Location_RG_Country":"Brazil","Location_RG_Latitude":-11.547,"Location_RG_Longitude":-41.976},{"_id":"66be08540d51b213e01f02af","Location_RG_ID":"30wKZsrr","Location_RG_City":"Ilhabela SP","Location_RG_Country":"Brazil","Location_RG_Latitude":-23.816,"Location_RG_Longitude":-45.367},{"_id":"66be08540d51b213e01f02b1","Location_RG_ID":"fT6bSObD","Location_RG_City":"Imbé RS","Location_RG_Country":"Brazil","Location_RG_Latitude":-29.976,"Location_RG_Longitude":-50.128},{"_id":"66be08540d51b213e01f02b3","Location_RG_ID":"EpgcEvJT","Location_RG_City":"Imperatriz MA","Location_RG_Country":"Brazil","Location_RG_Latitude":-5.521,"Location_RG_Longitude":-47.472},{"_id":"66be08540d51b213e01f02b5","Location_RG_ID":"MDTG-9LC","Location_RG_City":"Indaial SC","Location_RG_Country":"Brazil","Location_RG_Latitude":-26.9,"Location_RG_Longitude":-49.236},{"_id":"66be08540d51b213e01f02b7","Location_RG_ID":"Ix17IxKf","Location_RG_City":"Indaiatuba SP","Location_RG_Country":"Brazil","Location_RG_Latitude":-23.089,"Location_RG_Longitude":-47.209},{"_id":"66be08550d51b213e01f02b9","Location_RG_ID":"OUhy2KOV","Location_RG_City":"Inhumas GO","Location_RG_Country":"Brazil","Location_RG_Latitude":-16.373,"Location_RG_Longitude":-49.492},{"_id":"66be08550d51b213e01f02bb","Location_RG_ID":"OEA9qUor","Location_RG_City":"Ipatinga MG","Location_RG_Country":"Brazil","Location_RG_Latitude":-19.471,"Location_RG_Longitude":-42.548},{"_id":"66be08550d51b213e01f02be","Location_RG_ID":"c31n3LXz","Location_RG_City":"Ipiaú BA","Location_RG_Country":"Brazil","Location_RG_Latitude":-14.135,"Location_RG_Longitude":-39.739},{"_id":"66be08550d51b213e01f02c0","Location_RG_ID":"TuRbDPrz","Location_RG_City":"Ipê RS","Location_RG_Country":"Brazil","Location_RG_Latitude":-28.818,"Location_RG_Longitude":-51.28},{"_id":"66be08560d51b213e01f02c2","Location_RG_ID":"b8sxhfvu","Location_RG_City":"Itabuna BA","Location_RG_Country":"Brazil","Location_RG_Latitude":-14.788,"Location_RG_Longitude":-39.278},{"_id":"66be08560d51b213e01f02c4","Location_RG_ID":"4aZSY0Z2","Location_RG_City":"Itajubá MG","Location_RG_Country":"Brazil","Location_RG_Latitude":-22.423,"Location_RG_Longitude":-45.46},{"_id":"66be08560d51b213e01f02c6","Location_RG_ID":"0iqhKVD6","Location_RG_City":"Itapagé CE","Location_RG_Country":"Brazil","Location_RG_Latitude":-3.685,"Location_RG_Longitude":-39.585},{"_id":"66be08560d51b213e01f02c8","Location_RG_ID":"X3DSwHLj","Location_RG_City":"Itapecerica MG","Location_RG_Country":"Brazil","Location_RG_Latitude":-20.472,"Location_RG_Longitude":-45.124},{"_id":"66be08570d51b213e01f02ca","Location_RG_ID":"dWup7J8F","Location_RG_City":"Itapema SC","Location_RG_Country":"Brazil","Location_RG_Latitude":-27.096,"Location_RG_Longitude":-48.618},{"_id":"66be08570d51b213e01f02cc","Location_RG_ID":"5xJxBkHG","Location_RG_City":"Itaperuna RJ","Location_RG_Country":"Brazil","Location_RG_Latitude":-21.2,"Location_RG_Longitude":-41.88},{"_id":"66be08570d51b213e01f02ce","Location_RG_ID":"mejTwtnQ","Location_RG_City":"Itapetininga SP","Location_RG_Country":"Brazil","Location_RG_Latitude":-23.589,"Location_RG_Longitude":-48.049},{"_id":"66be08570d51b213e01f02d0","Location_RG_ID":"2F6f5xq8","Location_RG_City":"Itapeva SP","Location_RG_Country":"Brazil","Location_RG_Latitude":-23.979,"Location_RG_Longitude":-48.877},{"_id":"66be08570d51b213e01f02d3","Location_RG_ID":"dxVU8bcW","Location_RG_City":"Itapiranga SC","Location_RG_Country":"Brazil","Location_RG_Latitude":-27.17,"Location_RG_Longitude":-53.711},{"_id":"66be08580d51b213e01f02d6","Location_RG_ID":"96jQqeTK","Location_RG_City":"Itapoá SC","Location_RG_Country":"Brazil","Location_RG_Latitude":-26.08,"Location_RG_Longitude":-48.659},{"_id":"66be08580d51b213e01f02d8","Location_RG_ID":"K8sLt0Ot","Location_RG_City":"Itaquaquecetuba SP","Location_RG_Country":"Brazil","Location_RG_Latitude":-23.485,"Location_RG_Longitude":-46.35},{"_id":"66be08580d51b213e01f02da","Location_RG_ID":"t_rbfh8P","Location_RG_City":"Itatiba SP","Location_RG_Country":"Brazil","Location_RG_Latitude":-23.007,"Location_RG_Longitude":-46.818},{"_id":"66be08580d51b213e01f02dc","Location_RG_ID":"RfddgBhn","Location_RG_City":"Itu SP","Location_RG_Country":"Brazil","Location_RG_Latitude":-23.264,"Location_RG_Longitude":-47.3},{"_id":"66be08590d51b213e01f02de","Location_RG_ID":"cw3z8qzf","Location_RG_City":"Jaboatão dos Guararapes PE","Location_RG_Country":"Brazil","Location_RG_Latitude":-8.169,"Location_RG_Longitude":-34.921},{"_id":"66be08590d51b213e01f02e0","Location_RG_ID":"3P8qYHbz","Location_RG_City":"Jacareí SP","Location_RG_Country":"Brazil","Location_RG_Latitude":-23.299,"Location_RG_Longitude":-45.966},{"_id":"66be08590d51b213e01f02e3","Location_RG_ID":"w43KugKP","Location_RG_City":"Jaguaribe CE","Location_RG_Country":"Brazil","Location_RG_Latitude":-5.891,"Location_RG_Longitude":-38.622},{"_id":"66be08590d51b213e01f02e5","Location_RG_ID":"yakhCANw","Location_RG_City":"Jaguariúna SP","Location_RG_Country":"Brazil","Location_RG_Latitude":-22.704,"Location_RG_Longitude":-46.986},{"_id":"66be08590d51b213e01f02e8","Location_RG_ID":"McvHpXos","Location_RG_City":"Jandira SP","Location_RG_Country":"Brazil","Location_RG_Latitude":-23.528,"Location_RG_Longitude":-46.903},{"_id":"66be085a0d51b213e01f02ea","Location_RG_ID":"B-3zVrpl","Location_RG_City":"Japeri RJ","Location_RG_Country":"Brazil","Location_RG_Latitude":-22.644,"Location_RG_Longitude":-43.66},{"_id":"66be085a0d51b213e01f02ec","Location_RG_ID":"4UHec7nT","Location_RG_City":"Jaraguá do Sul SC","Location_RG_Country":"Brazil","Location_RG_Latitude":-26.482,"Location_RG_Longitude":-49.074},{"_id":"66be085a0d51b213e01f02ef","Location_RG_ID":"LL16WkP2","Location_RG_City":"Jauru MT","Location_RG_Country":"Brazil","Location_RG_Latitude":-15.335,"Location_RG_Longitude":-58.873},{"_id":"66be085a0d51b213e01f02f1","Location_RG_ID":"LEeRAsNy","Location_RG_City":"Jaú SP","Location_RG_Country":"Brazil","Location_RG_Latitude":-22.303,"Location_RG_Longitude":-48.576},{"_id":"66be085b0d51b213e01f02f3","Location_RG_ID":"HFIwkKTa","Location_RG_City":"Joinville SC","Location_RG_Country":"Brazil","Location_RG_Latitude":-26.304,"Location_RG_Longitude":-48.846},{"_id":"66be085b0d51b213e01f02f5","Location_RG_ID":"FDNBYMWA","Location_RG_City":"João Pessoa PB","Location_RG_Country":"Brazil","Location_RG_Latitude":-7.12,"Location_RG_Longitude":-34.845},{"_id":"66be085b0d51b213e01f02f8","Location_RG_ID":"fuASV4EV","Location_RG_City":"Juazeiro BA","Location_RG_Country":"Brazil","Location_RG_Latitude":-9.427,"Location_RG_Longitude":-40.506},{"_id":"66be085b0d51b213e01f02fa","Location_RG_ID":"P88Nbn15","Location_RG_City":"Juazeiro do Norte CE","Location_RG_Country":"Brazil","Location_RG_Latitude":-7.229,"Location_RG_Longitude":-39.312},{"_id":"66be085b0d51b213e01f02fc","Location_RG_ID":"aceVdGr0","Location_RG_City":"Juiz de Fora MG","Location_RG_Country":"Brazil","Location_RG_Latitude":-21.762,"Location_RG_Longitude":-43.343},{"_id":"66be085c0d51b213e01f02fe","Location_RG_ID":"3efwipDO","Location_RG_City":"Jundiaí SP","Location_RG_Country":"Brazil","Location_RG_Latitude":-23.186,"Location_RG_Longitude":-46.898},{"_id":"66be085c0d51b213e01f0300","Location_RG_ID":"lAZY3eQi","Location_RG_City":"Jupi PE","Location_RG_Country":"Brazil","Location_RG_Latitude":-8.711,"Location_RG_Longitude":-36.42},{"_id":"66be085c0d51b213e01f0302","Location_RG_ID":"po0BMyLW","Location_RG_City":"Lages SC","Location_RG_Country":"Brazil","Location_RG_Latitude":-27.816,"Location_RG_Longitude":-50.326},{"_id":"66be085c0d51b213e01f0304","Location_RG_ID":"mz3SgON4","Location_RG_City":"Lambari MG","Location_RG_Country":"Brazil","Location_RG_Latitude":-21.968,"Location_RG_Longitude":-45.349},{"_id":"66be085d0d51b213e01f0307","Location_RG_ID":"ukMJVFyb","Location_RG_City":"Lavras MG","Location_RG_Country":"Brazil","Location_RG_Latitude":-21.266,"Location_RG_Longitude":-45.037},{"_id":"66be085d0d51b213e01f030a","Location_RG_ID":"2NfdlBos","Location_RG_City":"Lavras da Mangabeira CE","Location_RG_Country":"Brazil","Location_RG_Latitude":-6.749,"Location_RG_Longitude":-38.965},{"_id":"66be085d0d51b213e01f030d","Location_RG_ID":"REgxCdn5","Location_RG_City":"Lavrinhas SP","Location_RG_Country":"Brazil","Location_RG_Latitude":-22.568,"Location_RG_Longitude":-44.906},{"_id":"66be085d0d51b213e01f030f","Location_RG_ID":"avudSire","Location_RG_City":"Lençóis Paulista SP","Location_RG_Country":"Brazil","Location_RG_Latitude":-22.603,"Location_RG_Longitude":-48.804},{"_id":"66be085d0d51b213e01f0312","Location_RG_ID":"hPgXddr5","Location_RG_City":"Leticia","Location_RG_Country":"Brazil","Location_RG_Latitude":-4.203,"Location_RG_Longitude":-69.936},{"_id":"66be085e0d51b213e01f0315","Location_RG_ID":"7iFtzZLE","Location_RG_City":"Lima Campos MA","Location_RG_Country":"Brazil","Location_RG_Latitude":-4.52,"Location_RG_Longitude":-44.466},{"_id":"66be085e0d51b213e01f0317","Location_RG_ID":"7EKRAr4L","Location_RG_City":"Limeira SP","Location_RG_Country":"Brazil","Location_RG_Latitude":-22.566,"Location_RG_Longitude":-47.397},{"_id":"66be085e0d51b213e01f0319","Location_RG_ID":"ZgQsG2L4","Location_RG_City":"Limoeiro do Norte CE","Location_RG_Country":"Brazil","Location_RG_Latitude":-5.149,"Location_RG_Longitude":-38.095},{"_id":"66be085e0d51b213e01f031b","Location_RG_ID":"8oPrrkRz","Location_RG_City":"Lins SP","Location_RG_Country":"Brazil","Location_RG_Latitude":-21.673,"Location_RG_Longitude":-49.747},{"_id":"66be085f0d51b213e01f031d","Location_RG_ID":"KodWBKgM","Location_RG_City":"Macapá AP","Location_RG_Country":"Brazil","Location_RG_Latitude":0.036,"Location_RG_Longitude":-51.071},{"_id":"66be085f0d51b213e01f031f","Location_RG_ID":"WQainqCS","Location_RG_City":"Macaé RJ","Location_RG_Country":"Brazil","Location_RG_Latitude":-22.382,"Location_RG_Longitude":-41.787},{"_id":"66be085f0d51b213e01f0321","Location_RG_ID":"mBD8Hw7G","Location_RG_City":"Maceió AL","Location_RG_Country":"Brazil","Location_RG_Latitude":-9.65,"Location_RG_Longitude":-35.709},{"_id":"66be085f0d51b213e01f0324","Location_RG_ID":"CyQitU2N","Location_RG_City":"Mairiporã SP","Location_RG_Country":"Brazil","Location_RG_Latitude":-23.318,"Location_RG_Longitude":-46.589},{"_id":"66be085f0d51b213e01f0326","Location_RG_ID":"uQdJYQku","Location_RG_City":"Manaus AM","Location_RG_Country":"Brazil","Location_RG_Latitude":-3.119,"Location_RG_Longitude":-60.022},{"_id":"66be08600d51b213e01f0328","Location_RG_ID":"fz9ZJJGl","Location_RG_City":"Maracujá BA","Location_RG_Country":"Brazil","Location_RG_Latitude":-11.514,"Location_RG_Longitude":-40.217},{"_id":"66be08600d51b213e01f032a","Location_RG_ID":"KZ0TaR9b","Location_RG_City":"Maricá RJ","Location_RG_Country":"Brazil","Location_RG_Latitude":-22.916,"Location_RG_Longitude":-42.819},{"_id":"66be08600d51b213e01f032c","Location_RG_ID":"EEI2ACQO","Location_RG_City":"Maringá PR","Location_RG_Country":"Brazil","Location_RG_Latitude":-23.421,"Location_RG_Longitude":-51.933},{"_id":"66be08600d51b213e01f032e","Location_RG_ID":"YJPr46ck","Location_RG_City":"Marília SP","Location_RG_Country":"Brazil","Location_RG_Latitude":-22.218,"Location_RG_Longitude":-49.951},{"_id":"66be08610d51b213e01f0330","Location_RG_ID":"Kdgo7fex","Location_RG_City":"Mauá SP","Location_RG_Country":"Brazil","Location_RG_Latitude":-23.668,"Location_RG_Longitude":-46.462},{"_id":"66be08610d51b213e01f0332","Location_RG_ID":"8kBPCedB","Location_RG_City":"Meruoca CE","Location_RG_Country":"Brazil","Location_RG_Latitude":-3.541,"Location_RG_Longitude":-40.454},{"_id":"66be08610d51b213e01f0334","Location_RG_ID":"kqna292k","Location_RG_City":"Mesquita RJ","Location_RG_Country":"Brazil","Location_RG_Latitude":-22.782,"Location_RG_Longitude":-43.429},{"_id":"66be08610d51b213e01f0336","Location_RG_ID":"jhLM2UJr","Location_RG_City":"Mococa SP","Location_RG_Country":"Brazil","Location_RG_Latitude":-21.474,"Location_RG_Longitude":-47.001},{"_id":"66be08620d51b213e01f0339","Location_RG_ID":"KXtGCGHA","Location_RG_City":"Mogi das Cruzes SP","Location_RG_Country":"Brazil","Location_RG_Latitude":-23.521,"Location_RG_Longitude":-46.186},{"_id":"66be08620d51b213e01f033c","Location_RG_ID":"xhL5JkRC","Location_RG_City":"Montanha ES","Location_RG_Country":"Brazil","Location_RG_Latitude":-18.127,"Location_RG_Longitude":-40.364},{"_id":"66be08620d51b213e01f033e","Location_RG_ID":"obJyNoZp","Location_RG_City":"Montes Claros MG","Location_RG_Country":"Brazil","Location_RG_Latitude":-16.729,"Location_RG_Longitude":-43.858},{"_id":"66be08620d51b213e01f0340","Location_RG_ID":"yWC-fwbf","Location_RG_City":"Morada Nova de Minas MG","Location_RG_Country":"Brazil","Location_RG_Latitude":-18.604,"Location_RG_Longitude":-45.358},{"_id":"66be08620d51b213e01f0342","Location_RG_ID":"blq0OIb4","Location_RG_City":"Morrinhos CE","Location_RG_Country":"Brazil","Location_RG_Latitude":-3.227,"Location_RG_Longitude":-40.123},{"_id":"66be08630d51b213e01f0344","Location_RG_ID":"6t6FYFsb","Location_RG_City":"Mossoró RN","Location_RG_Country":"Brazil","Location_RG_Latitude":-5.184,"Location_RG_Longitude":-37.348},{"_id":"66be08630d51b213e01f0346","Location_RG_ID":"HBL2baI_","Location_RG_City":"Nilópolis RJ","Location_RG_Country":"Brazil","Location_RG_Latitude":-22.81,"Location_RG_Longitude":-43.419},{"_id":"66be08630d51b213e01f0349","Location_RG_ID":"NbhRjP6p","Location_RG_City":"Niterói RJ","Location_RG_Country":"Brazil","Location_RG_Latitude":-22.886,"Location_RG_Longitude":-43.115},{"_id":"66be08630d51b213e01f034b","Location_RG_ID":"PFmkJTr0","Location_RG_City":"Nova Andradina MS","Location_RG_Country":"Brazil","Location_RG_Latitude":-22.238,"Location_RG_Longitude":-53.344},{"_id":"66be08640d51b213e01f034d","Location_RG_ID":"RmUAWDfk","Location_RG_City":"Nova Era MG","Location_RG_Country":"Brazil","Location_RG_Latitude":-19.766,"Location_RG_Longitude":-43.035},{"_id":"66be08640d51b213e01f0350","Location_RG_ID":"pJZmEEv7","Location_RG_City":"Nova Friburgo RJ","Location_RG_Country":"Brazil","Location_RG_Latitude":-22.289,"Location_RG_Longitude":-42.534},{"_id":"66be08640d51b213e01f0353","Location_RG_ID":"j57cf1wT","Location_RG_City":"Nova Lima MG","Location_RG_Country":"Brazil","Location_RG_Latitude":-19.993,"Location_RG_Longitude":-43.849},{"_id":"66be08640d51b213e01f0355","Location_RG_ID":"Bk31sePf","Location_RG_City":"Novo Horizonte SP","Location_RG_Country":"Brazil","Location_RG_Latitude":-21.465,"Location_RG_Longitude":-49.225},{"_id":"66be08640d51b213e01f0357","Location_RG_ID":"Pz8rlLlj","Location_RG_City":"Olinda PE","Location_RG_Country":"Brazil","Location_RG_Latitude":-7.99,"Location_RG_Longitude":-34.842},{"_id":"66be08650d51b213e01f0359","Location_RG_ID":"QpTxH2FX","Location_RG_City":"Osasco SP","Location_RG_Country":"Brazil","Location_RG_Latitude":-23.533,"Location_RG_Longitude":-46.792},{"_id":"66be08650d51b213e01f035b","Location_RG_ID":"bsihQf6P","Location_RG_City":"Ouro Preto MG","Location_RG_Country":"Brazil","Location_RG_Latitude":-20.386,"Location_RG_Longitude":-43.504},{"_id":"66be08650d51b213e01f035d","Location_RG_ID":"aibYnQZY","Location_RG_City":"Palhoça SC","Location_RG_Country":"Brazil","Location_RG_Latitude":-27.646,"Location_RG_Longitude":-48.67},{"_id":"66be08650d51b213e01f0360","Location_RG_ID":"GzD8wiUc","Location_RG_City":"Papanduva SC","Location_RG_Country":"Brazil","Location_RG_Latitude":-26.41,"Location_RG_Longitude":-50.133},{"_id":"66be08660d51b213e01f0362","Location_RG_ID":"Kkh90KCn","Location_RG_City":"Paranaguá PR","Location_RG_Country":"Brazil","Location_RG_Latitude":-25.517,"Location_RG_Longitude":-48.523},{"_id":"66be08660d51b213e01f0364","Location_RG_ID":"m29Y1w9f","Location_RG_City":"Paranavaí PR","Location_RG_Country":"Brazil","Location_RG_Latitude":-23.082,"Location_RG_Longitude":-52.462},{"_id":"66be08660d51b213e01f0366","Location_RG_ID":"1YwKm_k2","Location_RG_City":"Pardinho SP","Location_RG_Country":"Brazil","Location_RG_Latitude":-23.08,"Location_RG_Longitude":-48.376},{"_id":"66be08660d51b213e01f0368","Location_RG_ID":"2bcFDOHF","Location_RG_City":"Parnamirim RN","Location_RG_Country":"Brazil","Location_RG_Latitude":-5.912,"Location_RG_Longitude":-35.271},{"_id":"66be08660d51b213e01f036a","Location_RG_ID":"QUJypHLo","Location_RG_City":"Parnaíba PI","Location_RG_Country":"Brazil","Location_RG_Latitude":-2.906,"Location_RG_Longitude":-41.773},{"_id":"66be08670d51b213e01f036d","Location_RG_ID":"72rdv3aG","Location_RG_City":"Patos de Minas MG","Location_RG_Country":"Brazil","Location_RG_Latitude":-18.587,"Location_RG_Longitude":-46.515},{"_id":"66be08670d51b213e01f0371","Location_RG_ID":"mMnVpZH5","Location_RG_City":"Patrocínio MG","Location_RG_Country":"Brazil","Location_RG_Latitude":-18.938,"Location_RG_Longitude":-46.994},{"_id":"66be08670d51b213e01f0373","Location_RG_ID":"ZSprMo8b","Location_RG_City":"Pedro Canário ES","Location_RG_Country":"Brazil","Location_RG_Latitude":-18.296,"Location_RG_Longitude":-39.957},{"_id":"66be08670d51b213e01f0375","Location_RG_ID":"Lx2KBpGB","Location_RG_City":"Pedro Juan Caballero","Location_RG_Country":"Brazil","Location_RG_Latitude":-22.546,"Location_RG_Longitude":-55.732},{"_id":"66be08680d51b213e01f0379","Location_RG_ID":"PBwlVJRX","Location_RG_City":"Pelotas RS","Location_RG_Country":"Brazil","Location_RG_Latitude":-31.765,"Location_RG_Longitude":-52.338},{"_id":"66be08680d51b213e01f037b","Location_RG_ID":"3a0rJRAR","Location_RG_City":"Peruíbe SP","Location_RG_Country":"Brazil","Location_RG_Latitude":-24.313,"Location_RG_Longitude":-47.002},{"_id":"66be08680d51b213e01f037d","Location_RG_ID":"zUiqeHzU","Location_RG_City":"Pesqueira PE","Location_RG_Country":"Brazil","Location_RG_Latitude":-8.359,"Location_RG_Longitude":-36.698},{"_id":"66be08680d51b213e01f037f","Location_RG_ID":"RhQUuG1m","Location_RG_City":"Petrolina PE","Location_RG_Country":"Brazil","Location_RG_Latitude":-9.384,"Location_RG_Longitude":-40.508},{"_id":"66be08680d51b213e01f0381","Location_RG_ID":"u8WxycII","Location_RG_City":"Petrolândia PE","Location_RG_Country":"Brazil","Location_RG_Latitude":-8.962,"Location_RG_Longitude":-38.222},{"_id":"66be08690d51b213e01f0383","Location_RG_ID":"AVoD7FHh","Location_RG_City":"Petrópolis RJ","Location_RG_Country":"Brazil","Location_RG_Latitude":-22.511,"Location_RG_Longitude":-43.178},{"_id":"66be08690d51b213e01f0385","Location_RG_ID":"JyXwa1jI","Location_RG_City":"Piracicaba SP","Location_RG_Country":"Brazil","Location_RG_Latitude":-22.734,"Location_RG_Longitude":-47.648},{"_id":"66be08690d51b213e01f0388","Location_RG_ID":"o8gghXSX","Location_RG_City":"Ponta Grossa PR","Location_RG_Country":"Brazil","Location_RG_Latitude":-25.099,"Location_RG_Longitude":-50.159},{"_id":"66be08690d51b213e01f038a","Location_RG_ID":"19XDaSPN","Location_RG_City":"Ponta Porã MS","Location_RG_Country":"Brazil","Location_RG_Latitude":-22.523,"Location_RG_Longitude":-55.724},{"_id":"66be086a0d51b213e01f038c","Location_RG_ID":"T1pGvdXZ","Location_RG_City":"Pontal do Paraná PR","Location_RG_Country":"Brazil","Location_RG_Latitude":-25.697,"Location_RG_Longitude":-48.476},{"_id":"66be086a0d51b213e01f038e","Location_RG_ID":"cBuAeAW4","Location_RG_City":"Porto Alegre RS","Location_RG_Country":"Brazil","Location_RG_Latitude":-30.035,"Location_RG_Longitude":-51.218},{"_id":"66be086a0d51b213e01f0390","Location_RG_ID":"r6FGsHHu","Location_RG_City":"Porto Feliz SP","Location_RG_Country":"Brazil","Location_RG_Latitude":-23.21,"Location_RG_Longitude":-47.525},{"_id":"66be086a0d51b213e01f0392","Location_RG_ID":"XHGkRt7f","Location_RG_City":"Pouso Alegre MG","Location_RG_Country":"Brazil","Location_RG_Latitude":-22.248,"Location_RG_Longitude":-45.942},{"_id":"66be086b0d51b213e01f0394","Location_RG_ID":"F948IRMh","Location_RG_City":"Poços de Caldas MG","Location_RG_Country":"Brazil","Location_RG_Latitude":-21.785,"Location_RG_Longitude":-46.562},{"_id":"66be086b0d51b213e01f0396","Location_RG_ID":"uxkPya3n","Location_RG_City":"Prata MG","Location_RG_Country":"Brazil","Location_RG_Latitude":-19.31,"Location_RG_Longitude":-48.928},{"_id":"66be086b0d51b213e01f0398","Location_RG_ID":"GFnwdDwv","Location_RG_City":"Presidente Prudente SP","Location_RG_Country":"Brazil","Location_RG_Latitude":-22.121,"Location_RG_Longitude":-51.393},{"_id":"66be086b0d51b213e01f039a","Location_RG_ID":"xphEgrZk","Location_RG_City":"Recife PE","Location_RG_Country":"Brazil","Location_RG_Latitude":-8.048,"Location_RG_Longitude":-34.877},{"_id":"66be086b0d51b213e01f039d","Location_RG_ID":"EpDyRTXG","Location_RG_City":"Resende RJ","Location_RG_Country":"Brazil","Location_RG_Latitude":-22.471,"Location_RG_Longitude":-44.451},{"_id":"66be086c0d51b213e01f03a0","Location_RG_ID":"Gh7mH5KZ","Location_RG_City":"Reserva PR","Location_RG_Country":"Brazil","Location_RG_Latitude":-24.65,"Location_RG_Longitude":-50.849},{"_id":"66be086c0d51b213e01f03a2","Location_RG_ID":"KTb10rOO","Location_RG_City":"Rialma GO","Location_RG_Country":"Brazil","Location_RG_Latitude":-15.316,"Location_RG_Longitude":-49.582},{"_id":"66be086c0d51b213e01f03a4","Location_RG_ID":"0BhaQFAo","Location_RG_City":"Ribeirão Bonito SP","Location_RG_Country":"Brazil","Location_RG_Latitude":-22.068,"Location_RG_Longitude":-48.176},{"_id":"66be086c0d51b213e01f03a6","Location_RG_ID":"3sscmCQg","Location_RG_City":"Ribeirão Preto SP","Location_RG_Country":"Brazil","Location_RG_Latitude":-21.171,"Location_RG_Longitude":-47.81},{"_id":"66be086d0d51b213e01f03a8","Location_RG_ID":"xnl5wv3X","Location_RG_City":"Rio Bonito RJ","Location_RG_Country":"Brazil","Location_RG_Latitude":-22.711,"Location_RG_Longitude":-42.624},{"_id":"66be086d0d51b213e01f03aa","Location_RG_ID":"MCCIn4R7","Location_RG_City":"Rio Grande RS","Location_RG_Country":"Brazil","Location_RG_Latitude":-32.035,"Location_RG_Longitude":-52.108},{"_id":"66be086d0d51b213e01f03ad","Location_RG_ID":"KYyJIWEh","Location_RG_City":"Rio Verde GO","Location_RG_Country":"Brazil","Location_RG_Latitude":-17.793,"Location_RG_Longitude":-50.92},{"_id":"66be086d0d51b213e01f03af","Location_RG_ID":"E8zuYp47","Location_RG_City":"Rio Vermelho MG","Location_RG_Country":"Brazil","Location_RG_Latitude":-18.323,"Location_RG_Longitude":-43.058},{"_id":"66be086d0d51b213e01f03b1","Location_RG_ID":"zBzV2plE","Location_RG_City":"Rio de Janeiro RJ","Location_RG_Country":"Brazil","Location_RG_Latitude":-22.907,"Location_RG_Longitude":-43.173},{"_id":"66be086e0d51b213e01f03b3","Location_RG_ID":"AAwD094z","Location_RG_City":"Saloá PE","Location_RG_Country":"Brazil","Location_RG_Latitude":-8.974,"Location_RG_Longitude":-36.689},{"_id":"66be086e0d51b213e01f03b6","Location_RG_ID":"XeRTyfXj","Location_RG_City":"Salvador BA","Location_RG_Country":"Brazil","Location_RG_Latitude":-12.978,"Location_RG_Longitude":-38.504},{"_id":"66be086e0d51b213e01f03b9","Location_RG_ID":"G8LYcRky","Location_RG_City":"Santa Cruz do Capibaribe PE","Location_RG_Country":"Brazil","Location_RG_Latitude":-7.948,"Location_RG_Longitude":-36.206},{"_id":"66be086e0d51b213e01f03bb","Location_RG_ID":"KCXSMm0k","Location_RG_City":"Santa Cruz do Sul RS","Location_RG_Country":"Brazil","Location_RG_Latitude":-29.723,"Location_RG_Longitude":-52.435},{"_id":"66be086f0d51b213e01f03bd","Location_RG_ID":"wP0lL9s1","Location_RG_City":"Santa Fé do Sul SP","Location_RG_Country":"Brazil","Location_RG_Latitude":-20.211,"Location_RG_Longitude":-50.927},{"_id":"66be086f0d51b213e01f03bf","Location_RG_ID":"1wMYSjPZ","Location_RG_City":"Santa Luzia MG","Location_RG_Country":"Brazil","Location_RG_Latitude":-19.788,"Location_RG_Longitude":-43.93},{"_id":"66be086f0d51b213e01f03c1","Location_RG_ID":"sJxx9YJd","Location_RG_City":"Santa Lúcia PR","Location_RG_Country":"Brazil","Location_RG_Latitude":-25.411,"Location_RG_Longitude":-53.564},{"_id":"66be086f0d51b213e01f03c3","Location_RG_ID":"ivQaXXkm","Location_RG_City":"Santa Maria RS","Location_RG_Country":"Brazil","Location_RG_Latitude":-29.687,"Location_RG_Longitude":-53.816},{"_id":"66be086f0d51b213e01f03c6","Location_RG_ID":"nwAKF3hz","Location_RG_City":"Santana do Livramento RS","Location_RG_Country":"Brazil","Location_RG_Latitude":-30.877,"Location_RG_Longitude":-55.539},{"_id":"66be08700d51b213e01f03c8","Location_RG_ID":"Ys1zwJz0","Location_RG_City":"Santarém PA","Location_RG_Country":"Brazil","Location_RG_Latitude":-2.451,"Location_RG_Longitude":-54.701},{"_id":"66be08700d51b213e01f03ca","Location_RG_ID":"KICQnDd3","Location_RG_City":"Santiago RS","Location_RG_Country":"Brazil","Location_RG_Latitude":-29.192,"Location_RG_Longitude":-54.867},{"_id":"66be08710d51b213e01f03cc","Location_RG_ID":"pKrKCSvF","Location_RG_City":"Santo Amaro BA","Location_RG_Country":"Brazil","Location_RG_Latitude":-12.547,"Location_RG_Longitude":-38.711},{"_id":"66be08710d51b213e01f03d0","Location_RG_ID":"zfxHnroS","Location_RG_City":"Santo André SP","Location_RG_Country":"Brazil","Location_RG_Latitude":-23.674,"Location_RG_Longitude":-46.544},{"_id":"66be08710d51b213e01f03d3","Location_RG_ID":"MJN36AXz","Location_RG_City":"Santo Antônio da Platina PR","Location_RG_Country":"Brazil","Location_RG_Latitude":-23.298,"Location_RG_Longitude":-50.073},{"_id":"66be08710d51b213e01f03d5","Location_RG_ID":"WCiSr8Oz","Location_RG_City":"Santo Antônio de Jesus BA","Location_RG_Country":"Brazil","Location_RG_Latitude":-12.97,"Location_RG_Longitude":-39.262},{"_id":"66be08720d51b213e01f03d8","Location_RG_ID":"XpJ9QCkU","Location_RG_City":"Santo Cristo RS","Location_RG_Country":"Brazil","Location_RG_Latitude":-27.826,"Location_RG_Longitude":-54.663},{"_id":"66be08720d51b213e01f03db","Location_RG_ID":"WlQO7wRt","Location_RG_City":"Santo Ângelo RS","Location_RG_Country":"Brazil","Location_RG_Latitude":-28.301,"Location_RG_Longitude":-54.267},{"_id":"66be08720d51b213e01f03dd","Location_RG_ID":"hqIDgHbI","Location_RG_City":"Santos SP","Location_RG_Country":"Brazil","Location_RG_Latitude":-23.968,"Location_RG_Longitude":-46.329},{"_id":"66be08720d51b213e01f03df","Location_RG_ID":"LAAd8wEq","Location_RG_City":"Saquarema RJ","Location_RG_Country":"Brazil","Location_RG_Latitude":-22.932,"Location_RG_Longitude":-42.487},{"_id":"66be08720d51b213e01f03e1","Location_RG_ID":"SdftJjIK","Location_RG_City":"Senador Cortes MG","Location_RG_Country":"Brazil","Location_RG_Latitude":-21.799,"Location_RG_Longitude":-42.943},{"_id":"66be08730d51b213e01f03e3","Location_RG_ID":"dXZ3KDqc","Location_RG_City":"Senador Sá CE","Location_RG_Country":"Brazil","Location_RG_Latitude":-3.353,"Location_RG_Longitude":-40.467},{"_id":"66be08730d51b213e01f03e5","Location_RG_ID":"tSybXoOz","Location_RG_City":"Sentinela do Sul RS","Location_RG_Country":"Brazil","Location_RG_Latitude":-30.627,"Location_RG_Longitude":-51.62},{"_id":"66be08730d51b213e01f03e7","Location_RG_ID":"7qrZi2mI","Location_RG_City":"Serra Talhada PE","Location_RG_Country":"Brazil","Location_RG_Latitude":-7.982,"Location_RG_Longitude":-38.289},{"_id":"66be08730d51b213e01f03ea","Location_RG_ID":"nWpGLUvP","Location_RG_City":"Sete Lagoas MG","Location_RG_Country":"Brazil","Location_RG_Latitude":-19.457,"Location_RG_Longitude":-44.242},{"_id":"66be08740d51b213e01f03ec","Location_RG_ID":"J90PXvUN","Location_RG_City":"Silvânia GO","Location_RG_Country":"Brazil","Location_RG_Latitude":-16.668,"Location_RG_Longitude":-48.613},{"_id":"66be08740d51b213e01f03ee","Location_RG_ID":"6FKqlsDO","Location_RG_City":"Sobral CE","Location_RG_Country":"Brazil","Location_RG_Latitude":-3.702,"Location_RG_Longitude":-40.35},{"_id":"66be08740d51b213e01f03f0","Location_RG_ID":"wdTvtN0L","Location_RG_City":"Sorocaba SP","Location_RG_Country":"Brazil","Location_RG_Latitude":-23.502,"Location_RG_Longitude":-47.453},{"_id":"66be08740d51b213e01f03f2","Location_RG_ID":"pvzsUA9R","Location_RG_City":"Sousa PB","Location_RG_Country":"Brazil","Location_RG_Latitude":-6.763,"Location_RG_Longitude":-38.225},{"_id":"66be08740d51b213e01f03f4","Location_RG_ID":"8sVIiNwy","Location_RG_City":"Sumaré SP","Location_RG_Country":"Brazil","Location_RG_Latitude":-22.821,"Location_RG_Longitude":-47.273},{"_id":"66be08750d51b213e01f03f6","Location_RG_ID":"Vj3ZxS9z","Location_RG_City":"São Bernardo do Campo SP","Location_RG_Country":"Brazil","Location_RG_Latitude":-23.69,"Location_RG_Longitude":-46.565},{"_id":"66be08750d51b213e01f03f8","Location_RG_ID":"erEDco0U","Location_RG_City":"São Carlos SP","Location_RG_Country":"Brazil","Location_RG_Latitude":-22.009,"Location_RG_Longitude":-47.891},{"_id":"66be08750d51b213e01f03fa","Location_RG_ID":"72U9wtaG","Location_RG_City":"São Gonçalo RJ","Location_RG_Country":"Brazil","Location_RG_Latitude":-22.827,"Location_RG_Longitude":-43.064},{"_id":"66be08750d51b213e01f03fc","Location_RG_ID":"f3mkrjzu","Location_RG_City":"São José SC","Location_RG_Country":"Brazil","Location_RG_Latitude":-27.614,"Location_RG_Longitude":-48.637},{"_id":"66be08760d51b213e01f03ff","Location_RG_ID":"1HyzHG8h","Location_RG_City":"São José do Rio Preto SP","Location_RG_Country":"Brazil","Location_RG_Latitude":-20.812,"Location_RG_Longitude":-49.376},{"_id":"66be08760d51b213e01f0402","Location_RG_ID":"KWE6vIxs","Location_RG_City":"São José dos Campos SP","Location_RG_Country":"Brazil","Location_RG_Latitude":-23.224,"Location_RG_Longitude":-45.901},{"_id":"66be08760d51b213e01f0404","Location_RG_ID":"cjAIO5HD","Location_RG_City":"São João da Boa Vista SP","Location_RG_Country":"Brazil","Location_RG_Latitude":-21.971,"Location_RG_Longitude":-46.795},{"_id":"66be08760d51b213e01f0406","Location_RG_ID":"gOE2bKQB","Location_RG_City":"São Leopoldo RS","Location_RG_Country":"Brazil","Location_RG_Latitude":-29.755,"Location_RG_Longitude":-51.15},