[
  {
    "_id": "6441d55a513989512df7134a",
    "city_id": "B7DS4V1m",
    "Location_RG_City": "Paris",
    "Location_RG_Country": "France",
    "lat": 48.853027,
    "long": 2.3499904,
    "title": "Paris - France",
    "count": 260
  },
  {
    "_id": "6441d55a513989512df71329",
    "city_id": "0eZoYyEW",
    "Location_RG_City": "London",
    "Location_RG_Country": "United Kingdom",
    "lat": 51.509808,
    "long": -0.10904721,
    "title": "London - United Kingdom",
    "count": 166
  },
  {
    "_id": "6441d55a513989512df71399",
    "city_id": "KXcDeFyY",
    "Location_RG_City": "Lyon",
    "Location_RG_Country": "France",
    "lat": 45.76404,
    "long": 4.835659,
    "title": "Lyon - France",
    "count": 100
  },
  {
    "_id": "6441d55a513989512df71518",
    "city_id": "9Yi25umJ",
    "Location_RG_City": "New York NY",
    "Location_RG_Country": "United States",
    "lat": 40.712776,
    "long": -74.005974,
    "title": "New York NY - United States",
    "count": 100
  },
  {
    "_id": "6441d55a513989512df71354",
    "city_id": "mOIYG9ow",
    "Location_RG_City": "Bucharest",
    "Location_RG_Country": "Romania",
    "lat": 44.42677,
    "long": 26.10254,
    "title": "Bucharest - Romania",
    "count": 85
  },
  {
    "_id": "6441d55a513989512df7130a",
    "city_id": "3QbMs4L3",
    "Location_RG_City": "Hof",
    "Location_RG_Country": "Germany",
    "lat": 50.313538,
    "long": 11.912782,
    "title": "Hof - Germany",
    "count": 85
  },
  {
    "_id": "6441d55a513989512df71334",
    "city_id": "6lcXHtKK",
    "Location_RG_City": "Berlin",
    "Location_RG_Country": "Germany",
    "lat": 52.520008,
    "long": 13.404954,
    "title": "Berlin - Germany",
    "count": 71
  },
  {
    "_id": "6441d55a513989512df7130c",
    "city_id": "wtNFAzwK",
    "Location_RG_City": "Athens",
    "Location_RG_Country": "Greece",
    "lat": 37.983917,
    "long": 23.72936,
    "title": "Athens - Greece",
    "count": 67
  },
  {
    "_id": "6441d55a513989512df7149b",
    "city_id": "E8VuzNNU",
    "Location_RG_City": "Bogotá",
    "Location_RG_Country": "Colombia",
    "lat": 4.7109885,
    "long": -74.07209,
    "title": "Bogotá - Colombia",
    "count": 63
  },
  {
    "_id": "6441d55a513989512df71366",
    "city_id": "J3Bamiy2",
    "Location_RG_City": "Milan",
    "Location_RG_Country": "Italy",
    "lat": 45.465424,
    "long": 9.185925,
    "title": "Milan - Italy",
    "count": 62
  },
  {
    "_id": "6441d55a513989512df71392",
    "city_id": "o5ZJ7lQK",
    "Location_RG_City": "Rome",
    "Location_RG_Country": "Italy",
    "lat": 41.902782,
    "long": 12.496366,
    "title": "Rome - Italy",
    "count": 58
  },
  {
    "_id": "6441d55a513989512df7138c",
    "city_id": "BMplqTGe",
    "Location_RG_City": "São Paulo SP",
    "Location_RG_Country": "Brazil",
    "lat": -23.55052,
    "long": -46.63331,
    "title": "São Paulo SP - Brazil",
    "count": 57
  },
  {
    "_id": "6441d55a513989512df71314",
    "city_id": "0B2rs0E8",
    "Location_RG_City": "Budapest",
    "Location_RG_Country": "Hungary",
    "lat": 47.497913,
    "long": 19.040236,
    "title": "Budapest - Hungary",
    "count": 56
  },
  {
    "_id": "6441d55a513989512df7136e",
    "city_id": "LbmJqSyY",
    "Location_RG_City": "San Francisco CA",
    "Location_RG_Country": "United States",
    "lat": 37.77493,
    "long": -122.41942,
    "title": "San Francisco CA - United States",
    "count": 55
  },
  {
    "_id": "6441d55a513989512df7139c",
    "city_id": "IgQ9XxkV",
    "Location_RG_City": "Vienna",
    "Location_RG_Country": "Austria",
    "lat": 48.208176,
    "long": 16.37382,
    "title": "Vienna - Austria",
    "count": 54
  },
  {
    "_id": "6441d55a513989512df71319",
    "city_id": "hFG1a7Dk",
    "Location_RG_City": "Madrid",
    "Location_RG_Country": "Spain",
    "lat": 40.416775,
    "long": -3.7037902,
    "title": "Madrid - Spain",
    "count": 51
  },
  {
    "_id": "6441d55a513989512df71341",
    "city_id": "MQfEnBji",
    "Location_RG_City": "Moscow",
    "Location_RG_Country": "Russia",
    "lat": 55.755825,
    "long": 37.6173,
    "title": "Moscow - Russia",
    "count": 49
  },
  {
    "_id": "6441d55a513989512df7134e",
    "city_id": "qRhxzkLk",
    "Location_RG_City": "Los Angeles CA",
    "Location_RG_Country": "United States",
    "lat": 34.052235,
    "long": -118.24368,
    "title": "Los Angeles CA - United States",
    "count": 48
  },
  {
    "_id": "6441d55a513989512df71325",
    "city_id": "kHc5QBDu",
    "Location_RG_City": "Hilversum",
    "Location_RG_Country": "Netherlands",
    "lat": 52.229168,
    "long": 5.1668973,
    "title": "Hilversum - Netherlands",
    "count": 44
  },
  {
    "_id": "6441d55a513989512df713f4",
    "city_id": "Jz9EFkDQ",
    "Location_RG_City": "İstanbul",
    "Location_RG_Country": "Turkey",
    "lat": 41.008236,
    "long": 28.97836,
    "title": "İstanbul - Turkey",
    "count": 43
  },
  {
    "_id": "6441d55a513989512df71378",
    "city_id": "vqzAr1BQ",
    "Location_RG_City": "Toronto",
    "Location_RG_Country": "Canada",
    "lat": 43.653225,
    "long": -79.38319,
    "title": "Toronto - Canada",
    "count": 42
  },
  {
    "_id": "6441d55a513989512df71426",
    "city_id": "QkxHmSx8",
    "Location_RG_City": "Kyiv",
    "Location_RG_Country": "Ukraine",
    "lat": 50.4501,
    "long": 30.5234,
    "title": "Kyiv - Ukraine",
    "count": 42
  },
  {
    "_id": "6441d55a513989512df71317",
    "city_id": "5jurvhBK",
    "Location_RG_City": "Lima",
    "Location_RG_Country": "Peru",
    "lat": -12.046374,
    "long": -77.04279,
    "title": "Lima - Peru",
    "count": 37
  },
  {
    "_id": "6441d55a513989512df7153f",
    "city_id": "5nKHCmch",
    "Location_RG_City": "Tallinn",
    "Location_RG_Country": "Estonia",
    "lat": 59.436962,
    "long": 24.753574,
    "title": "Tallinn - Estonia",
    "count": 37
  },
  {
    "_id": "6441d55a513989512df71417",
    "city_id": "iHdX6qQY",
    "Location_RG_City": "Tel Aviv-Yafo",
    "Location_RG_Country": "Israel",
    "lat": 32.0853,
    "long": 34.78177,
    "title": "Tel Aviv-Yafo - Israel",
    "count": 36
  },
  {
    "_id": "6441d55a513989512df71326",
    "city_id": "Dl7h95vw",
    "Location_RG_City": "Goiânia GO",
    "Location_RG_Country": "Brazil",
    "lat": -16.686882,
    "long": -49.26479,
    "title": "Goiânia GO - Brazil",
    "count": 34
  },
  {
    "_id": "6441d55a513989512df7133a",
    "city_id": "3bOmI9Vi",
    "Location_RG_City": "Miami FL",
    "Location_RG_Country": "United States",
    "lat": 25.76168,
    "long": -80.19179,
    "title": "Miami FL - United States",
    "count": 34
  },
  {
    "_id": "6441d55a513989512df71316",
    "city_id": "zBzV2plE",
    "Location_RG_City": "Rio de Janeiro RJ",
    "Location_RG_Country": "Brazil",
    "lat": -22.906847,
    "long": -43.172897,
    "title": "Rio de Janeiro RJ - Brazil",
    "count": 33
  },
  {
    "_id": "6441d55a513989512df713a0",
    "city_id": "gyX1Pab0",
    "Location_RG_City": "Saint Petersburg",
    "Location_RG_Country": "Russia",
    "lat": 59.93428,
    "long": 30.335098,
    "title": "Saint Petersburg - Russia",
    "count": 33
  },
  {
    "_id": "6441d55a513989512df7138a",
    "city_id": "T6VpIBN4",
    "Location_RG_City": "Thessaloniki",
    "Location_RG_Country": "Greece",
    "lat": 40.640064,
    "long": 22.94442,
    "title": "Thessaloniki - Greece",
    "count": 32
  },
  {
    "_id": "6441d55a513989512df71574",
    "city_id": "WYa4vKGn",
    "Location_RG_City": "Amsterdam",
    "Location_RG_Country": "Netherlands",
    "lat": 52.367573,
    "long": 4.904139,
    "title": "Amsterdam - Netherlands",
    "count": 31
  },
  {
    "_id": "6441d55a513989512df71361",
    "city_id": "jfPfHZDd",
    "Location_RG_City": "Buenos Aires",
    "Location_RG_Country": "Argentina",
    "lat": -34.603683,
    "long": -58.381557,
    "title": "Buenos Aires - Argentina",
    "count": 29
  },
  {
    "_id": "6441d55a513989512df7139b",
    "city_id": "mFxWfHUs",
    "Location_RG_City": "Mexico City",
    "Location_RG_Country": "Mexico",
    "lat": 19.432608,
    "long": -99.13321,
    "title": "Mexico City - Mexico",
    "count": 28
  },
  {
    "_id": "6441d55a513989512df71311",
    "city_id": "InC1M7vI",
    "Location_RG_City": "Lagos",
    "Location_RG_Country": "Nigeria",
    "lat": 6.5248704,
    "long": 3.3791916,
    "title": "Lagos - Nigeria",
    "count": 28
  },
  {
    "_id": "6441d55a513989512df71374",
    "city_id": "D1wk1w5c",
    "Location_RG_City": "Chicago IL",
    "Location_RG_Country": "United States",
    "lat": 41.878113,
    "long": -87.6298,
    "title": "Chicago IL - United States",
    "count": 27
  },
  {
    "_id": "6441d55a513989512df71362",
    "city_id": "8uotztrv",
    "Location_RG_City": "Munich",
    "Location_RG_Country": "Germany",
    "lat": 48.135124,
    "long": 11.581981,
    "title": "Munich - Germany",
    "count": 27
  },
  {
    "_id": "6441d55a513989512df7149e",
    "city_id": "hxAjBpRv",
    "Location_RG_City": "Hamburg",
    "Location_RG_Country": "Germany",
    "lat": 53.551086,
    "long": 9.993682,
    "title": "Hamburg - Germany",
    "count": 27
  },
  {
    "_id": "6441d55a513989512df71350",
    "city_id": "rvVa25hx",
    "Location_RG_City": "Brussels",
    "Location_RG_Country": "Belgium",
    "lat": 50.850338,
    "long": 4.3517103,
    "title": "Brussels - Belgium",
    "count": 27
  },
  {
    "_id": "6441d55a513989512df7132c",
    "city_id": "ciory15f",
    "Location_RG_City": "Utrecht",
    "Location_RG_Country": "Netherlands",
    "lat": 52.090736,
    "long": 5.12142,
    "title": "Utrecht - Netherlands",
    "count": 27
  },
  {
    "_id": "6441d55a513989512df71430",
    "city_id": "uNB8u2o7",
    "Location_RG_City": "Sydney",
    "Location_RG_Country": "Australia",
    "lat": -33.86882,
    "long": 151.20929,
    "title": "Sydney - Australia",
    "count": 26
  },
  {
    "_id": "6441d55a513989512df7156a",
    "city_id": "VpaXMMVw",
    "Location_RG_City": "Warsaw",
    "Location_RG_Country": "Poland",
    "lat": 52.229675,
    "long": 21.012228,
    "title": "Warsaw - Poland",
    "count": 25
  },
  {
    "_id": "6441d55a513989512df713fa",
    "city_id": "KW3VtnxN",
    "Location_RG_City": "Dublin",
    "Location_RG_Country": "Ireland",
    "lat": 53.349804,
    "long": -6.2603097,
    "title": "Dublin - Ireland",
    "count": 25
  },
  {
    "_id": "6441d55a513989512df7145f",
    "city_id": "iDi8UaTA",
    "Location_RG_City": "Cluj-Napoca",
    "Location_RG_Country": "Romania",
    "lat": 46.77121,
    "long": 23.623636,
    "title": "Cluj-Napoca - Romania",
    "count": 25
  },
  {
    "_id": "6441d55a513989512df71315",
    "city_id": "Hww81noL",
    "Location_RG_City": "Naarden",
    "Location_RG_Country": "Netherlands",
    "lat": 52.296017,
    "long": 5.1630845,
    "title": "Naarden - Netherlands",
    "count": 24
  },
  {
    "_id": "6441d55a513989512df71441",
    "city_id": "nkeutQ57",
    "Location_RG_City": "Belgrade",
    "Location_RG_Country": "Serbia",
    "lat": 44.786568,
    "long": 20.448921,
    "title": "Belgrade - Serbia",
    "count": 24
  },
  {
    "_id": "6441d55a513989512df71337",
    "city_id": "FFcztd6Z",
    "Location_RG_City": "Montréal",
    "Location_RG_Country": "Canada",
    "lat": 45.50169,
    "long": -73.56725,
    "title": "Montréal - Canada",
    "count": 24
  },
  {
    "_id": "6441d55a513989512df715c0",
    "city_id": "4bt53WGI",
    "Location_RG_City": "Medellín",
    "Location_RG_Country": "Colombia",
    "lat": 6.253041,
    "long": -75.564575,
    "title": "Medellín - Colombia",
    "count": 22
  },
  {
    "_id": "6441d55a513989512df7166a",
    "city_id": "CtpxHQ6P",
    "Location_RG_City": "Glasgow",
    "Location_RG_Country": "United Kingdom",
    "lat": 55.86424,
    "long": -4.251806,
    "title": "Glasgow - United Kingdom",
    "count": 21
  },
  {
    "_id": "6441d55a513989512df71356",
    "city_id": "ImZ4Qzhn",
    "Location_RG_City": "Atlanta GA",
    "Location_RG_Country": "United States",
    "lat": 33.748997,
    "long": -84.387985,
    "title": "Atlanta GA - United States",
    "count": 21
  },
  {
    "_id": "6441d55a513989512df714ca",
    "city_id": "8xC9GZQD",
    "Location_RG_City": "Ljubljana",
    "Location_RG_Country": "Slovenia",
    "lat": 46.056946,
    "long": 14.505752,
    "title": "Ljubljana - Slovenia",
    "count": 20
  },
  {
    "_id": "6441d55a513989512df71603",
    "city_id": "nDFMS4a7",
    "Location_RG_City": "Manchester",
    "Location_RG_Country": "United Kingdom",
    "lat": 53.48076,
    "long": -2.2426305,
    "title": "Manchester - United Kingdom",
    "count": 20
  },
  {
    "_id": "6441d55a513989512df71379",
    "city_id": "uC7s3fqj",
    "Location_RG_City": "Sofia",
    "Location_RG_Country": "Bulgaria",
    "lat": 42.69771,
    "long": 23.321867,
    "title": "Sofia - Bulgaria",
    "count": 20
  },
  {
    "_id": "6441d55a513989512df7158a",
    "city_id": "K2VIX0Q7",
    "Location_RG_City": "Accra",
    "Location_RG_Country": "Ghana",
    "lat": 5.603717,
    "long": -0.1869644,
    "title": "Accra - Ghana",
    "count": 20
  },
  {
    "_id": "6441d55a513989512df7139f",
    "city_id": "rFQPSqRr",
    "Location_RG_City": "Vilnius",
    "Location_RG_Country": "Lithuania",
    "lat": 54.687157,
    "long": 25.279652,
    "title": "Vilnius - Lithuania",
    "count": 20
  },
  {
    "_id": "6441d55a513989512df714cc",
    "city_id": "wRtG4LE8",
    "Location_RG_City": "Zagreb",
    "Location_RG_Country": "Croatia",
    "lat": 45.81501,
    "long": 15.981919,
    "title": "Zagreb - Croatia",
    "count": 19
  },
  {
    "_id": "6441d55a513989512df714b5",
    "city_id": "DySRBHdL",
    "Location_RG_City": "Barcelona",
    "Location_RG_Country": "Spain",
    "lat": 41.385063,
    "long": 2.1734035,
    "title": "Barcelona - Spain",
    "count": 19
  },
  {
    "_id": "6441d55a513989512df71707",
    "city_id": "7sFtQGkg",
    "Location_RG_City": "Zürich",
    "Location_RG_Country": "Switzerland",
    "lat": 47.37689,
    "long": 8.541694,
    "title": "Zürich - Switzerland",
    "count": 19
  },
  {
    "_id": "6441d55a513989512df71779",
    "city_id": "n4X0myqO",
    "Location_RG_City": "Santiago",
    "Location_RG_Country": "Chile",
    "lat": -33.44889,
    "long": -70.669266,
    "title": "Santiago - Chile",
    "count": 19
  },
  {
    "_id": "6441d55a513989512df713bb",
    "city_id": "NvkKyFxE",
    "Location_RG_City": "Bratislava",
    "Location_RG_Country": "Slovakia",
    "lat": 48.148598,
    "long": 17.107748,
    "title": "Bratislava - Slovakia",
    "count": 18
  },
  {
    "_id": "6441d55a513989512df713c6",
    "city_id": "kvHh2EYU",
    "Location_RG_City": "Barranquilla",
    "Location_RG_Country": "Colombia",
    "lat": 11.004107,
    "long": -74.806984,
    "title": "Barranquilla - Colombia",
    "count": 18
  },
  {
    "_id": "6441d55a513989512df713b5",
    "city_id": "8M6YcdoM",
    "Location_RG_City": "Guatemala City",
    "Location_RG_Country": "Guatemala",
    "lat": 14.634915,
    "long": -90.50688,
    "title": "Guatemala City - Guatemala",
    "count": 18
  },
  {
    "_id": "6441d55a513989512df71b82",
    "city_id": "NDUIFL1V",
    "Location_RG_City": "Arlon",
    "Location_RG_Country": "Belgium",
    "lat": 49.685135,
    "long": 5.8104806,
    "title": "Arlon - Belgium",
    "count": 18
  },
  {
    "_id": "6441d55a513989512df713c8",
    "city_id": "cZnWRQfj",
    "Location_RG_City": "Beirut",
    "Location_RG_Country": "Lebanon",
    "lat": 33.89408,
    "long": 35.501743,
    "title": "Beirut - Lebanon",
    "count": 18
  },
  {
    "_id": "6441d55a513989512df71566",
    "city_id": "q7lBJvx6",
    "Location_RG_City": "Wesseling",
    "Location_RG_Country": "Germany",
    "lat": 50.82556,
    "long": 6.9725385,
    "title": "Wesseling - Germany",
    "count": 17
  },
  {
    "_id": "6441d55a513989512df713e8",
    "city_id": "yamxtCoy",
    "Location_RG_City": "Cologne",
    "Location_RG_Country": "Germany",
    "lat": 50.93753,
    "long": 6.9602785,
    "title": "Cologne - Germany",
    "count": 17
  },
  {
    "_id": "6441d55a513989512df7137e",
    "city_id": "6PyjGw08",
    "Location_RG_City": "Turin",
    "Location_RG_Country": "Italy",
    "lat": 45.070312,
    "long": 7.6868563,
    "title": "Turin - Italy",
    "count": 17
  },
  {
    "_id": "6441d55a513989512df71554",
    "city_id": "2ZBMV4yZ",
    "Location_RG_City": "Lausanne",
    "Location_RG_Country": "Switzerland",
    "lat": 46.519653,
    "long": 6.632273,
    "title": "Lausanne - Switzerland",
    "count": 17
  },
  {
    "_id": "6441d55a513989512df7133f",
    "city_id": "dpbivRM8",
    "Location_RG_City": "Prague",
    "Location_RG_Country": "Czechia",
    "lat": 50.07554,
    "long": 14.4378,
    "title": "Prague - Czechia",
    "count": 17
  },
  {
    "_id": "6441d55a513989512df7137b",
    "city_id": "m9daGUqC",
    "Location_RG_City": "Boston MA",
    "Location_RG_Country": "United States",
    "lat": 42.36008,
    "long": -71.05888,
    "title": "Boston MA - United States",
    "count": 16
  },
  {
    "_id": "6441d55a513989512df71523",
    "city_id": "ILO7kNZM",
    "Location_RG_City": "Bengaluru",
    "Location_RG_Country": "India",
    "lat": 12.971599,
    "long": 77.59457,
    "title": "Bengaluru - India",
    "count": 16
  },
  {
    "_id": "6441d55a513989512df7140b",
    "city_id": "faFoW88z",
    "Location_RG_City": "Copenhagen",
    "Location_RG_Country": "Denmark",
    "lat": 55.676098,
    "long": 12.568337,
    "title": "Copenhagen - Denmark",
    "count": 16
  },
  {
    "_id": "6441d55a513989512df71387",
    "city_id": "4oT76Ufe",
    "Location_RG_City": "Cali",
    "Location_RG_Country": "Colombia",
    "lat": 3.4516468,
    "long": -76.53198,
    "title": "Cali - Colombia",
    "count": 16
  },
  {
    "_id": "6441d55a513989512df7140e",
    "city_id": "OXpr0ERz",
    "Location_RG_City": "Melbourne",
    "Location_RG_Country": "Australia",
    "lat": -37.81628,
    "long": 144.96425,
    "title": "Melbourne - Australia",
    "count": 16
  },
  {
    "_id": "6441d55a513989512df71384",
    "city_id": "0Kf3iMme",
    "Location_RG_City": "Chișinău",
    "Location_RG_Country": "Moldova",
    "lat": 47.010452,
    "long": 28.86381,
    "title": "Chișinău - Moldova",
    "count": 16
  },
  {
    "_id": "6441d55a513989512df71ec3",
    "city_id": "stJNLhyw",
    "Location_RG_City": "Ibadan",
    "Location_RG_Country": "Nigeria",
    "lat": 7.3775353,
    "long": 3.9470396,
    "title": "Ibadan - Nigeria",
    "count": 16
  },
  {
    "_id": "6441d55a513989512df714db",
    "city_id": "2QTNoQIf",
    "Location_RG_City": "Lisbon",
    "Location_RG_Country": "Portugal",
    "lat": 38.72225,
    "long": -9.139337,
    "title": "Lisbon - Portugal",
    "count": 16
  },
  {
    "_id": "6441d55a513989512df7164c",
    "city_id": "cBuAeAW4",
    "Location_RG_City": "Porto Alegre RS",
    "Location_RG_Country": "Brazil",
    "lat": -30.034647,
    "long": -51.21766,
    "title": "Porto Alegre RS - Brazil",
    "count": 15
  },
  {
    "_id": "6441d55a513989512df7146f",
    "city_id": "q2gXIuHJ",
    "Location_RG_City": "Jakarta",
    "Location_RG_Country": "Indonesia",
    "lat": -6.174465,
    "long": 106.82275,
    "title": "Jakarta - Indonesia",
    "count": 15
  },
  {
    "_id": "6441d55a513989512df71394",
    "city_id": "JiLW5qtr",
    "Location_RG_City": "Antwerp",
    "Location_RG_Country": "Belgium",
    "lat": 51.219448,
    "long": 4.4024644,
    "title": "Antwerp - Belgium",
    "count": 15
  },
  {
    "_id": "6441d55a513989512df71439",
    "city_id": "7vCJ0sGy",
    "Location_RG_City": "Oslo",
    "Location_RG_Country": "Norway",
    "lat": 59.913868,
    "long": 10.752245,
    "title": "Oslo - Norway",
    "count": 15
  },
  {
    "_id": "6441d55a513989512df7136f",
    "city_id": "OKbHNN8d",
    "Location_RG_City": "Minsk",
    "Location_RG_Country": "Belarus",
    "lat": 53.90454,
    "long": 27.561525,
    "title": "Minsk - Belarus",
    "count": 14
  },
  {
    "_id": "6441d55a513989512df71436",
    "city_id": "8auDzHOD",
    "Location_RG_City": "Fortaleza CE",
    "Location_RG_Country": "Brazil",
    "lat": -3.7318616,
    "long": -38.52667,
    "title": "Fortaleza CE - Brazil",
    "count": 14
  },
  {
    "_id": "6441d55a513989512df713ad",
    "city_id": "fhp9pBJO",
    "Location_RG_City": "Rotterdam",
    "Location_RG_Country": "Netherlands",
    "lat": 51.92442,
    "long": 4.4777327,
    "title": "Rotterdam - Netherlands",
    "count": 14
  },
  {
    "_id": "6441d55a513989512df716a3",
    "city_id": "PPM2Rql0",
    "Location_RG_City": "Seattle WA",
    "Location_RG_Country": "United States",
    "lat": 47.60621,
    "long": -122.33207,
    "title": "Seattle WA - United States",
    "count": 13
  },
  {
    "_id": "6441d55a513989512df715d9",
    "city_id": "QtH0eU6V",
    "Location_RG_City": "Hong Kong",
    "Location_RG_Country": "Hong Kong",
    "lat": 22.278315,
    "long": 114.1747,
    "title": "Hong Kong - Hong Kong",
    "count": 13
  },
  {
    "_id": "6441d55a513989512df71526",
    "city_id": "KG8vbGSr",
    "Location_RG_City": "San Salvador",
    "Location_RG_Country": "El Salvador",
    "lat": 13.692941,
    "long": -89.21819,
    "title": "San Salvador - El Salvador",
    "count": 13
  },
  {
    "_id": "6441d55a513989512df71b92",
    "city_id": "96vuciQA",
    "Location_RG_City": "Magdeburg",
    "Location_RG_Country": "Germany",
    "lat": 52.120533,
    "long": 11.627624,
    "title": "Magdeburg - Germany",
    "count": 13
  },
  {
    "_id": "6441d55a513989512df714b2",
    "city_id": "qRr9wBHH",
    "Location_RG_City": "Manizales",
    "Location_RG_Country": "Colombia",
    "lat": 5.070275,
    "long": -75.51382,
    "title": "Manizales - Colombia",
    "count": 13
  },
  {
    "_id": "6441d55a513989512df71f36",
    "city_id": "RHiIcjlV",
    "Location_RG_City": "Schwarzach",
    "Location_RG_Country": "Austria",
    "lat": 47.448586,
    "long": 9.762593,
    "title": "Schwarzach - Austria",
    "count": 13
  },
  {
    "_id": "6441d55a513989512df718f3",
    "city_id": "cuACz0en",
    "Location_RG_City": "Johannesburg",
    "Location_RG_Country": "South Africa",
    "lat": -26.204103,
    "long": 28.047304,
    "title": "Johannesburg - South Africa",
    "count": 13
  },
  {
    "_id": "6441d55a513989512df71537",
    "city_id": "XeRTyfXj",
    "Location_RG_City": "Salvador BA",
    "Location_RG_Country": "Brazil",
    "lat": -12.978226,
    "long": -38.503506,
    "title": "Salvador BA - Brazil",
    "count": 12
  },
  {
    "_id": "6441d55a513989512df714dc",
    "city_id": "HSBmaHQc",
    "Location_RG_City": "Naples",
    "Location_RG_Country": "Italy",
    "lat": 40.851776,
    "long": 14.268125,
    "title": "Naples - Italy",
    "count": 12
  },
  {
    "_id": "6441d55a513989512df71442",
    "city_id": "dPPs8c2v",
    "Location_RG_City": "Noventa Padovana",
    "Location_RG_Country": "Italy",
    "lat": 45.416023,
    "long": 11.954011,
    "title": "Noventa Padovana - Italy",
    "count": 12
  },
  {
    "_id": "6441d55a513989512df7132b",
    "city_id": "aO0mLGBn",
    "Location_RG_City": "Nashville TN",
    "Location_RG_Country": "United States",
    "lat": 36.162663,
    "long": -86.7816,
    "title": "Nashville TN - United States",
    "count": 12
  },
  {
    "_id": "6441d55a513989512df714be",
    "city_id": "I9fHaPJH",
    "Location_RG_City": "Santo Domingo",
    "Location_RG_Country": "Dominican Republic",
    "lat": 18.486057,
    "long": -69.93121,
    "title": "Santo Domingo - Dominican Republic",
    "count": 12
  },
  {
    "_id": "6441d55a513989512df719af",
    "city_id": "BQp7EEgW",
    "Location_RG_City": "Palma de Mallorca",
    "Location_RG_Country": "Spain",
    "lat": 39.5696,
    "long": 2.6501603,
    "title": "Palma de Mallorca - Spain",
    "count": 12
  },
  {
    "_id": "6441d55a513989512df71332",
    "city_id": "rUm92TN1",
    "Location_RG_City": "Curitiba PR",
    "Location_RG_Country": "Brazil",
    "lat": -25.429003,
    "long": -49.267143,
    "title": "Curitiba PR - Brazil",
    "count": 12
  },
  {
    "_id": "6441d55a513989512df717bb",
    "city_id": "1RzdPXSQ",
    "Location_RG_City": "Riga",
    "Location_RG_Country": "Latvia",
    "lat": 56.94965,
    "long": 24.105186,
    "title": "Riga - Latvia",
    "count": 11
  },
  {
    "_id": "6441d55a513989512df7133d",
    "city_id": "75dKjMkz",
    "Location_RG_City": "Adelaide",
    "Location_RG_Country": "Australia",
    "lat": -34.928497,
    "long": 138.60074,
    "title": "Adelaide - Australia",
    "count": 11
  },
  {
    "_id": "6441d55a513989512df71604",
    "city_id": "AjenuRxY",
    "Location_RG_City": "Manila",
    "Location_RG_Country": "Philippines",
    "lat": 14.599512,
    "long": 120.98422,
    "title": "Manila - Philippines",
    "count": 11
  },
  {
    "_id": "6441d55a513989512df7136c",
    "city_id": "5YFjEtAG",
    "Location_RG_City": "Bologna",
    "Location_RG_Country": "Italy",
    "lat": 44.49489,
    "long": 11.342616,
    "title": "Bologna - Italy",
    "count": 11
  },
  {
    "_id": "6441d55a513989512df713a8",
    "city_id": "ARXzBqK7",
    "Location_RG_City": "Yerevan",
    "Location_RG_Country": "Armenia",
    "lat": 40.179184,
    "long": 44.499104,
    "title": "Yerevan - Armenia",
    "count": 11
  },
  {
    "_id": "6441d55a513989512df713d3",
    "city_id": "JA4qa8gk",
    "Location_RG_City": "Brasília DF",
    "Location_RG_Country": "Brazil",
    "lat": -15.794229,
    "long": -47.882164,
    "title": "Brasília DF - Brazil",
    "count": 11
  },
  {
    "_id": "6441d55a513989512df71612",
    "city_id": "0EHo5AJC",
    "Location_RG_City": "Ibagué",
    "Location_RG_Country": "Colombia",
    "lat": 4.444676,
    "long": -75.24244,
    "title": "Ibagué - Colombia",
    "count": 11
  },
  {
    "_id": "6441d55a513989512df718bd",
    "city_id": "LWkqcMzu",
    "Location_RG_City": "Tunja",
    "Location_RG_Country": "Colombia",
    "lat": 5.544642,
    "long": -73.35756,
    "title": "Tunja - Colombia",
    "count": 11
  },
  {
    "_id": "6441d55a513989512df7145a",
    "city_id": "enCtUacB",
    "Location_RG_City": "Pretoria",
    "Location_RG_Country": "South Africa",
    "lat": -25.747868,
    "long": 28.22927,
    "title": "Pretoria - South Africa",
    "count": 11
  },
  {
    "_id": "6441d55a513989512df71346",
    "city_id": "cMA39oB6",
    "Location_RG_City": "The Hague",
    "Location_RG_Country": "Netherlands",
    "lat": 52.0705,
    "long": 4.3006997,
    "title": "The Hague - Netherlands",
    "count": 11
  },
  {
    "_id": "6441d55a513989512df7142a",
    "city_id": "lQBWYLWa",
    "Location_RG_City": "Heraklion",
    "Location_RG_Country": "Greece",
    "lat": 35.338734,
    "long": 25.144213,
    "title": "Heraklion - Greece",
    "count": 10
  },
  {
    "_id": "6441d55a513989512df713f0",
    "city_id": "CboUxFwk",
    "Location_RG_City": "Houston TX",
    "Location_RG_Country": "United States",
    "lat": 29.760427,
    "long": -95.369804,
    "title": "Houston TX - United States",
    "count": 10
  },
  {
    "_id": "6441d55a513989512df71605",
    "city_id": "HaxmpLdd",
    "Location_RG_City": "Nuremberg",
    "Location_RG_Country": "Germany",
    "lat": 49.45203,
    "long": 11.07675,
    "title": "Nuremberg - Germany",
    "count": 10
  },
  {
    "_id": "6441d55a513989512df7131a",
    "city_id": "WzpJhOEg",
    "Location_RG_City": "Sibiu",
    "Location_RG_Country": "Romania",
    "lat": 45.79833,
    "long": 24.125582,
    "title": "Sibiu - Romania",
    "count": 10
  },
  {
    "_id": "6441d55a513989512df71853",
    "city_id": "QmbCFLGR",
    "Location_RG_City": "Birmingham",
    "Location_RG_Country": "United Kingdom",
    "lat": 52.486244,
    "long": -1.890401,
    "title": "Birmingham - United Kingdom",
    "count": 10
  },
  {
    "_id": "6441d55a513989512df713d7",
    "city_id": "6sGYAYTc",
    "Location_RG_City": "Pereira",
    "Location_RG_Country": "Colombia",
    "lat": 4.8087173,
    "long": -75.6906,
    "title": "Pereira - Colombia",
    "count": 10
  },
  {
    "_id": "6441d55a513989512df71531",
    "city_id": "Aq7xeIiB",
    "Location_RG_City": "Austin TX",
    "Location_RG_Country": "United States",
    "lat": 30.267153,
    "long": -97.74306,
    "title": "Austin TX - United States",
    "count": 10
  },
  {
    "_id": "6441d55a513989512df715a5",
    "city_id": "WciO94VB",
    "Location_RG_City": "Quito",
    "Location_RG_Country": "Ecuador",
    "lat": -0.1806532,
    "long": -78.467834,
    "title": "Quito - Ecuador",
    "count": 10
  },
  {
    "_id": "6441d55a513989512df71323",
    "city_id": "eCT4ymBs",
    "Location_RG_City": "Belo Horizonte MG",
    "Location_RG_Country": "Brazil",
    "lat": -19.924501,
    "long": -43.935238,
    "title": "Belo Horizonte MG - Brazil",
    "count": 10
  },
  {
    "_id": "6441d55a513989512df717a4",
    "city_id": "5TJWgfJJ",
    "Location_RG_City": "Singapore",
    "Location_RG_Country": "Singapore",
    "lat": 1.3553793,
    "long": 103.867744,
    "title": "Singapore - Singapore",
    "count": 10
  },
  {
    "_id": "6441d55a513989512df717a7",
    "city_id": "uyFK61aS",
    "Location_RG_City": "Montevideo",
    "Location_RG_Country": "Uruguay",
    "lat": -34.90111,
    "long": -56.16453,
    "title": "Montevideo - Uruguay",
    "count": 10
  },
  {
    "_id": "6441d55a513989512df71376",
    "city_id": "k3rgA6Jf",
    "Location_RG_City": "Frankfurt am Main",
    "Location_RG_Country": "Germany",
    "lat": 50.110924,
    "long": 8.682127,
    "title": "Frankfurt am Main - Germany",
    "count": 10
  },
  {
    "_id": "6441d55a513989512df71c22",
    "city_id": "4l4DNAWz",
    "Location_RG_City": "Port-au-Prince",
    "Location_RG_Country": "Haiti",
    "lat": 18.594395,
    "long": -72.307434,
    "title": "Port-au-Prince - Haiti",
    "count": 9
  },
  {
    "_id": "6441d55a513989512df7147a",
    "city_id": "vFPfo5Au",
    "Location_RG_City": "Cartagena",
    "Location_RG_Country": "Colombia",
    "lat": 10.391048,
    "long": -75.47942,
    "title": "Cartagena - Colombia",
    "count": 9
  },
  {
    "_id": "6441d55a513989512df71b95",
    "city_id": "DKxDobYF",
    "Location_RG_City": "Bern",
    "Location_RG_Country": "Switzerland",
    "lat": 46.947975,
    "long": 7.447447,
    "title": "Bern - Switzerland",
    "count": 9
  },
  {
    "_id": "6441d55a513989512df7168e",
    "city_id": "af62r2MU",
    "Location_RG_City": "Dallas TX",
    "Location_RG_Country": "United States",
    "lat": 32.776665,
    "long": -96.79699,
    "title": "Dallas TX - United States",
    "count": 9
  },
  {
    "_id": "6441d55a513989512df7130f",
    "city_id": "n2jfDYCC",
    "Location_RG_City": "Stuttgart",
    "Location_RG_Country": "Germany",
    "lat": 48.775845,
    "long": 9.182932,
    "title": "Stuttgart - Germany",
    "count": 9
  },
  {
    "_id": "6441d55a513989512df71389",
    "city_id": "xdFoGP7o",
    "Location_RG_City": "Málaga",
    "Location_RG_Country": "Spain",
    "lat": 36.72126,
    "long": -4.4212656,
    "title": "Málaga - Spain",
    "count": 9
  },
  {
    "_id": "6441d55a513989512df71701",
    "city_id": "zQKyRwxP",
    "Location_RG_City": "Genoa",
    "Location_RG_Country": "Italy",
    "lat": 44.40565,
    "long": 8.946256,
    "title": "Genoa - Italy",
    "count": 9
  },
  {
    "_id": "6441d55a513989512df71941",
    "city_id": "AiSaYtJ6",
    "Location_RG_City": "San Juan",
    "Location_RG_Country": "Puerto Rico",
    "lat": 18.46554,
    "long": -66.105736,
    "title": "San Juan - Puerto Rico",
    "count": 9
  },
  {
    "_id": "6441d55a513989512df714cd",
    "city_id": "GTrLRuGq",
    "Location_RG_City": "Denver CO",
    "Location_RG_Country": "United States",
    "lat": 39.739235,
    "long": -104.99025,
    "title": "Denver CO - United States",
    "count": 9
  },
  {
    "_id": "6441d55a513989512df71660",
    "city_id": "XQczyHwP",
    "Location_RG_City": "Las Vegas NV",
    "Location_RG_Country": "United States",
    "lat": 36.16994,
    "long": -115.13983,
    "title": "Las Vegas NV - United States",
    "count": 9
  },
  {
    "_id": "6441d55a513989512df71b9b",
    "city_id": "8QIijYhD",
    "Location_RG_City": "Kassel",
    "Location_RG_Country": "Germany",
    "lat": 51.31271,
    "long": 9.479746,
    "title": "Kassel - Germany",
    "count": 9
  },
  {
    "_id": "6441d55a513989512df71564",
    "city_id": "tlNkWoYO",
    "Location_RG_City": "Mannheim",
    "Location_RG_Country": "Germany",
    "lat": 49.48746,
    "long": 8.46604,
    "title": "Mannheim - Germany",
    "count": 9
  },
  {
    "_id": "6441d55a513989512df71670",
    "city_id": "RsH53YrI",
    "Location_RG_City": "Waterford",
    "Location_RG_Country": "Ireland",
    "lat": 52.25932,
    "long": -7.11007,
    "title": "Waterford - Ireland",
    "count": 9
  },
  {
    "_id": "6441d55a513989512df7148a",
    "city_id": "r4E9T7xr",
    "Location_RG_City": "Algiers",
    "Location_RG_Country": "Algeria",
    "lat": 36.75377,
    "long": 3.0587926,
    "title": "Algiers - Algeria",
    "count": 9
  },
  {
    "_id": "6441d55a513989512df71585",
    "city_id": "Z1N4bsO2",
    "Location_RG_City": "Abuja",
    "Location_RG_Country": "Nigeria",
    "lat": 9.076479,
    "long": 7.398574,
    "title": "Abuja - Nigeria",
    "count": 9
  },
  {
    "_id": "6441d55a513989512df715d6",
    "city_id": "XUTtfOmq",
    "Location_RG_City": "Española NM",
    "Location_RG_Country": "United States",
    "lat": 35.99104,
    "long": -106.081825,
    "title": "Española NM - United States",
    "count": 9
  },
  {
    "_id": "6441d55a513989512df715d1",
    "city_id": "2YfbAACD",
    "Location_RG_City": "Dakar",
    "Location_RG_Country": "Senegal",
    "lat": 14.668207,
    "long": -17.438469,
    "title": "Dakar - Senegal",
    "count": 9
  },
  {
    "_id": "6441d55a513989512df716a7",
    "city_id": "BDNAuSB4",
    "Location_RG_City": "Detroit MI",
    "Location_RG_Country": "United States",
    "lat": 42.33143,
    "long": -83.04575,
    "title": "Detroit MI - United States",
    "count": 9
  },
  {
    "_id": "6441d55a513989512df717bf",
    "city_id": "OOQ73VGu",
    "Location_RG_City": "La Paz",
    "Location_RG_Country": "Bolivia",
    "lat": -16.489689,
    "long": -68.11929,
    "title": "La Paz - Bolivia",
    "count": 9
  },
  {
    "_id": "6441d55a513989512df71981",
    "city_id": "ItDApT9y",
    "Location_RG_City": "Guadalajara",
    "Location_RG_Country": "Mexico",
    "lat": 20.659698,
    "long": -103.34961,
    "title": "Guadalajara - Mexico",
    "count": 9
  },
  {
    "_id": "6441d55a513989512df717ba",
    "city_id": "Uu7EtsJT",
    "Location_RG_City": "Saint Paul MN",
    "Location_RG_Country": "United States",
    "lat": 44.9537,
    "long": -93.08996,
    "title": "Saint Paul MN - United States",
    "count": 9
  },
  {
    "_id": "6441d55a513989512df713f7",
    "city_id": "yww6IvMD",
    "Location_RG_City": "Valencia",
    "Location_RG_Country": "Spain",
    "lat": 39.469906,
    "long": -0.3762881,
    "title": "Valencia - Spain",
    "count": 9
  },
  {
    "_id": "6441d55a513989512df71ad8",
    "city_id": "Ke1oitnz",
    "Location_RG_City": "Freiburg im Breisgau",
    "Location_RG_Country": "Germany",
    "lat": 47.99901,
    "long": 7.8421044,
    "title": "Freiburg im Breisgau - Germany",
    "count": 9
  },
  {
    "_id": "6441d55a513989512df71344",
    "city_id": "pUe3ikei",
    "Location_RG_City": "Sarajevo",
    "Location_RG_Country": "Bosnia and Herzegovina",
    "lat": 43.85626,
    "long": 18.413076,
    "title": "Sarajevo - Bosnia and Herzegovina",
    "count": 9
  },
  {
    "_id": "6441d55a513989512df71c5b",
    "city_id": "DIlWBUQt",
    "Location_RG_City": "Washington DC",
    "Location_RG_Country": "United States",
    "lat": 38.907192,
    "long": -77.03687,
    "title": "Washington DC - United States",
    "count": 8
  },
  {
    "_id": "6441d55a513989512df71664",
    "city_id": "mcbDC8oS",
    "Location_RG_City": "Higüey",
    "Location_RG_Country": "Dominican Republic",
    "lat": 18.614983,
    "long": -68.71402,
    "title": "Higüey - Dominican Republic",
    "count": 8
  },
  {
    "_id": "6441d55a513989512df71b25",
    "city_id": "YxCHF4r1",
    "Location_RG_City": "Mendoza",
    "Location_RG_Country": "Argentina",
    "lat": -32.889458,
    "long": -68.84584,
    "title": "Mendoza - Argentina",
    "count": 8
  },
  {
    "_id": "6441d55a513989512df71476",
    "city_id": "De6MxFii",
    "Location_RG_City": "Geneva",
    "Location_RG_Country": "Switzerland",
    "lat": 46.20439,
    "long": 6.1431575,
    "title": "Geneva - Switzerland",
    "count": 8
  },
  {
    "_id": "6441d55a513989512df71532",
    "city_id": "bLh0ZBR6",
    "Location_RG_City": "Monterrey",
    "Location_RG_Country": "Mexico",
    "lat": 25.686615,
    "long": -100.31612,
    "title": "Monterrey - Mexico",
    "count": 8
  },
  {
    "_id": "6441d55a513989512df71447",
    "city_id": "r18uzcbj",
    "Location_RG_City": "Prato",
    "Location_RG_Country": "Italy",
    "lat": 43.877705,
    "long": 11.102228,
    "title": "Prato - Italy",
    "count": 8
  },
  {
    "_id": "6441d55a513989512df71327",
    "city_id": "CHQHnkGc",
    "Location_RG_City": "Raleigh NC",
    "Location_RG_Country": "United States",
    "lat": 35.77959,
    "long": -78.638176,
    "title": "Raleigh NC - United States",
    "count": 8
  },
  {
    "_id": "6441d55a513989512df713b9",
    "city_id": "pNmbsGqA",
    "Location_RG_City": "Liverpool",
    "Location_RG_Country": "United Kingdom",
    "lat": 53.40837,
    "long": -2.9915726,
    "title": "Liverpool - United Kingdom",
    "count": 8
  },
  {
    "_id": "6441d55a513989512df715f3",
    "city_id": "zy9reZhn",
    "Location_RG_City": "Basel",
    "Location_RG_Country": "Switzerland",
    "lat": 47.559597,
    "long": 7.5885763,
    "title": "Basel - Switzerland",
    "count": 8
  },
  {
    "_id": "6441d55a513989512df71635",
    "city_id": "810iOG7i",
    "Location_RG_City": "Trieste",
    "Location_RG_Country": "Italy",
    "lat": 45.649525,
    "long": 13.776818,
    "title": "Trieste - Italy",
    "count": 8
  },
  {
    "_id": "6441d55a513989512df71403",
    "city_id": "ufW1jwxo",
    "Location_RG_City": "Cowbridge",
    "Location_RG_Country": "United Kingdom",
    "lat": 51.46209,
    "long": -3.449581,
    "title": "Cowbridge - United Kingdom",
    "count": 8
  },
  {
    "_id": "6441d55a513989512df71baa",
    "city_id": "leKl2aAL",
    "Location_RG_City": "San José",
    "Location_RG_Country": "Costa Rica",
    "lat": 9.928069,
    "long": -84.09072,
    "title": "San José - Costa Rica",
    "count": 8
  },
  {
    "_id": "6441d55a513989512df7168a",
    "city_id": "wXkYeCNY",
    "Location_RG_City": "Panama City",
    "Location_RG_Country": "Panama",
    "lat": 8.983865,
    "long": -79.51959,
    "title": "Panama City - Panama",
    "count": 8
  },
  {
    "_id": "6441d55a513989512df71808",
    "city_id": "xq6aU3rB",
    "Location_RG_City": "Córdoba",
    "Location_RG_Country": "Argentina",
    "lat": -31.420084,
    "long": -64.188774,
    "title": "Córdoba - Argentina",
    "count": 8
  },
  {
    "_id": "6441d55a513989512df71371",
    "city_id": "seU6w0O1",
    "Location_RG_City": "Ankara",
    "Location_RG_Country": "Turkey",
    "lat": 39.933365,
    "long": 32.85974,
    "title": "Ankara - Turkey",
    "count": 8
  },
  {
    "_id": "6441d55a513989512df71433",
    "city_id": "SQxjnHM9",
    "Location_RG_City": "Bangkok",
    "Location_RG_Country": "Thailand",
    "lat": 13.7563305,
    "long": 100.50176,
    "title": "Bangkok - Thailand",
    "count": 8
  },
  {
    "_id": "6441d55a513989512df714ec",
    "city_id": "vvWuTKaA",
    "Location_RG_City": "Palermo",
    "Location_RG_Country": "Italy",
    "lat": 38.11569,
    "long": 13.361267,
    "title": "Palermo - Italy",
    "count": 8
  },
  {
    "_id": "6441d55a513989512df71460",
    "city_id": "Q43GfufG",
    "Location_RG_City": "Zug",
    "Location_RG_Country": "Switzerland",
    "lat": 47.16617,
    "long": 8.515494,
    "title": "Zug - Switzerland",
    "count": 8
  },
  {
    "_id": "6441d55a513989512df7174e",
    "city_id": "ADpc8QAP",
    "Location_RG_City": "Willemstad",
    "Location_RG_Country": "Curaçao",
    "lat": 12.122422,
    "long": -68.88242,
    "title": "Willemstad - Curaçao",
    "count": 8
  },
  {
    "_id": "6441d55a513989512df714dd",
    "city_id": "jWXE5FHn",
    "Location_RG_City": "Leipzig",
    "Location_RG_Country": "Germany",
    "lat": 51.339695,
    "long": 12.373075,
    "title": "Leipzig - Germany",
    "count": 8
  },
  {
    "_id": "6441d55a513989512df71418",
    "city_id": "wBggEXZM",
    "Location_RG_City": "Philadelphia PA",
    "Location_RG_Country": "United States",
    "lat": 39.952583,
    "long": -75.16522,
    "title": "Philadelphia PA - United States",
    "count": 8
  },
  {
    "_id": "6441d55a513989512df7180f",
    "city_id": "FTVUPGHB",
    "Location_RG_City": "Brighton",
    "Location_RG_Country": "United Kingdom",
    "lat": 50.82253,
    "long": -0.137163,
    "title": "Brighton - United Kingdom",
    "count": 8
  },
  {
    "_id": "6441d55a513989512df71407",
    "city_id": "4a60VH7Q",
    "Location_RG_City": "Bremen",
    "Location_RG_Country": "Germany",
    "lat": 53.079296,
    "long": 8.801694,
    "title": "Bremen - Germany",
    "count": 7
  },
  {
    "_id": "6441d55a513989512df715cb",
    "city_id": "U2PrX7mN",
    "Location_RG_City": "Lille",
    "Location_RG_Country": "France",
    "lat": 50.62925,
    "long": 3.057256,
    "title": "Lille - France",
    "count": 7
  },
  {
    "_id": "6441d55a513989512df71383",
    "city_id": "xFq7ZScO",
    "Location_RG_City": "Bari",
    "Location_RG_Country": "Italy",
    "lat": 41.11714,
    "long": 16.871872,
    "title": "Bari - Italy",
    "count": 7
  },
  {
    "_id": "6441d55a513989512df71f3d",
    "city_id": "8WHtyp8V",
    "Location_RG_City": "Kumasi",
    "Location_RG_Country": "Ghana",
    "lat": 6.6666,
    "long": -1.6162709,
    "title": "Kumasi - Ghana",
    "count": 7
  },
  {
    "_id": "6441d55a513989512df71435",
    "city_id": "RrfQbSTm",
    "Location_RG_City": "Nicosia",
    "Location_RG_Country": "Cyprus",
    "lat": 35.174778,
    "long": 33.361435,
    "title": "Nicosia - Cyprus",
    "count": 7
  },
  {
    "_id": "6441d55a513989512df719d5",
    "city_id": "YVNvHrTx",
    "Location_RG_City": "Newcastle upon Tyne",
    "Location_RG_Country": "United Kingdom",
    "lat": 54.978252,
    "long": -1.61778,
    "title": "Newcastle upon Tyne - United Kingdom",
    "count": 7
  },
  {
    "_id": "6441d55a513989512df715f5",
    "city_id": "f9pePS41",
    "Location_RG_City": "Toulouse",
    "Location_RG_Country": "France",
    "lat": 43.604652,
    "long": 1.444209,
    "title": "Toulouse - France",
    "count": 7
  },
  {
    "_id": "6441d55a513989512df71357",
    "city_id": "4fVySIP8",
    "Location_RG_City": "Almere",
    "Location_RG_Country": "Netherlands",
    "lat": 52.350784,
    "long": 5.2647014,
    "title": "Almere - Netherlands",
    "count": 7
  },
  {
    "_id": "6441d55a513989512df716f3",
    "city_id": "byUAduFI",
    "Location_RG_City": "Modena",
    "Location_RG_Country": "Italy",
    "lat": 44.64713,
    "long": 10.925227,
    "title": "Modena - Italy",
    "count": 7
  },
  {
    "_id": "6441d55a513989512df71a12",
    "city_id": "0RFB6y0P",
    "Location_RG_City": "Wrocław",
    "Location_RG_Country": "Poland",
    "lat": 51.107883,
    "long": 17.038538,
    "title": "Wrocław - Poland",
    "count": 7
  },
  {
    "_id": "6441d55a513989512df716fe",
    "city_id": "mABHkuTS",
    "Location_RG_City": "Bolzano",
    "Location_RG_Country": "Italy",
    "lat": 46.498295,
    "long": 11.354758,
    "title": "Bolzano - Italy",
    "count": 7
  },
  {
    "_id": "6441d55a513989512df714a4",
    "city_id": "L8SlenaN",
    "Location_RG_City": "Sioux Falls SD",
    "Location_RG_Country": "United States",
    "lat": 43.544598,
    "long": -96.7311,
    "title": "Sioux Falls SD - United States",
    "count": 7
  },
  {
    "_id": "6441d55a513989512df717db",
    "city_id": "kCPeb6ls",
    "Location_RG_City": "Strasbourg",
    "Location_RG_Country": "France",
    "lat": 48.573406,
    "long": 7.7521114,
    "title": "Strasbourg - France",
    "count": 7
  },
  {
    "_id": "6441d55a513989512df71471",
    "city_id": "fJRiKrSN",
    "Location_RG_City": "Kuala Lumpur",
    "Location_RG_Country": "Malaysia",
    "lat": 3.139003,
    "long": 101.68685,
    "title": "Kuala Lumpur - Malaysia",
    "count": 7
  },
  {
    "_id": "6441d55a513989512df71309",
    "city_id": "uF6sb3eR",
    "Location_RG_City": "Edinburgh",
    "Location_RG_Country": "United Kingdom",
    "lat": 55.95325,
    "long": -3.188267,
    "title": "Edinburgh - United Kingdom",
    "count": 7
  },
  {
    "_id": "6441d55a513989512df71524",
    "city_id": "06EQApvU",
    "Location_RG_City": "Mulhouse",
    "Location_RG_Country": "France",
    "lat": 47.75084,
    "long": 7.335888,
    "title": "Mulhouse - France",
    "count": 7
  },
  {
    "_id": "6441d55a513989512df714c3",
    "city_id": "QKLFbVhA",
    "Location_RG_City": "Brisbane",
    "Location_RG_Country": "Australia",
    "lat": -27.46977,
    "long": 153.02512,
    "title": "Brisbane - Australia",
    "count": 7
  },
  {
    "_id": "6441d55a513989512df717f9",
    "city_id": "LZHE8dC0",
    "Location_RG_City": "Teresina PI",
    "Location_RG_Country": "Brazil",
    "lat": -5.092011,
    "long": -42.80376,
    "title": "Teresina PI - Brazil",
    "count": 7
  },
  {
    "_id": "6441d55a513989512df719ae",
    "city_id": "wJj2QIvR",
    "Location_RG_City": "Kingston",
    "Location_RG_Country": "Jamaica",
    "lat": 18.017874,
    "long": -76.809906,
    "title": "Kingston - Jamaica",
    "count": 7
  },
  {
    "_id": "6441d55a513989512df71bde",
    "city_id": "30FtI5aY",
    "Location_RG_City": "Cuenca",
    "Location_RG_Country": "Ecuador",
    "lat": -2.9001286,
    "long": -79.0059,
    "title": "Cuenca - Ecuador",
    "count": 7
  },
  {
    "_id": "6441d55a513989512df7191f",
    "city_id": "1WdGFn5o",
    "Location_RG_City": "Kansas City MO",
    "Location_RG_Country": "United States",
    "lat": 39.099728,
    "long": -94.57857,
    "title": "Kansas City MO - United States",
    "count": 7
  },
  {
    "_id": "6441d55a513989512df715b8",
    "city_id": "iiLHp9BA",
    "Location_RG_City": "Stockholm",
    "Location_RG_Country": "Sweden",
    "lat": 59.329323,
    "long": 18.06858,
    "title": "Stockholm - Sweden",
    "count": 7
  },
  {
    "_id": "6441d55a513989512df71336",
    "city_id": "QzQCLhOY",
    "Location_RG_City": "České Budějovice",
    "Location_RG_Country": "Czechia",
    "lat": 48.97566,
    "long": 14.480255,
    "title": "České Budějovice - Czechia",
    "count": 7
  },
  {
    "_id": "6441d55a513989512df714e4",
    "city_id": "zOAx4iIs",
    "Location_RG_City": "Montpellier",
    "Location_RG_Country": "France",
    "lat": 43.610767,
    "long": 3.876716,
    "title": "Montpellier - France",
    "count": 7
  },
  {
    "_id": "6441d55a513989512df713b7",
    "city_id": "8jT3Pml0",
    "Location_RG_City": "Skopje",
    "Location_RG_Country": "North Macedonia",
    "lat": 41.997345,
    "long": 21.427996,
    "title": "Skopje - North Macedonia",
    "count": 7
  },
  {
    "_id": "6441d55a513989512df715a6",
    "city_id": "KWE6vIxs",
    "Location_RG_City": "São José dos Campos SP",
    "Location_RG_Country": "Brazil",
    "lat": -23.223701,
    "long": -45.900906,
    "title": "São José dos Campos SP - Brazil",
    "count": 7
  },
  {
    "_id": "6441d55a513989512df714d2",
    "city_id": "iATDp23j",
    "Location_RG_City": "Düsseldorf",
    "Location_RG_Country": "Germany",
    "lat": 51.22774,
    "long": 6.7734556,
    "title": "Düsseldorf - Germany",
    "count": 7
  },
  {
    "_id": "6441d55a513989512df716f7",
    "city_id": "l6e4VlWt",
    "Location_RG_City": "Pittsburgh PA",
    "Location_RG_Country": "United States",
    "lat": 40.440624,
    "long": -79.99589,
    "title": "Pittsburgh PA - United States",
    "count": 7
  },
  {
    "_id": "6441d55a513989512df7136a",
    "city_id": "JcETiRso",
    "Location_RG_City": "Caracas",
    "Location_RG_Country": "Venezuela",
    "lat": 10.480594,
    "long": -66.9036,
    "title": "Caracas - Venezuela",
    "count": 6
  },
  {
    "_id": "6441d55a513989512df7169e",
    "city_id": "DixDKElz",
    "Location_RG_City": "Lomé",
    "Location_RG_Country": "Togo",
    "lat": 6.172497,
    "long": 1.2313617,
    "title": "Lomé - Togo",
    "count": 6
  },
  {
    "_id": "6441d55a513989512df71aff",
    "city_id": "9EJ2uqnm",
    "Location_RG_City": "Orlando FL",
    "Location_RG_Country": "United States",
    "lat": 28.538336,
    "long": -81.379234,
    "title": "Orlando FL - United States",
    "count": 6
  },
  {
    "_id": "6441d55a513989512df7154e",
    "city_id": "WHvx2SBH",
    "Location_RG_City": "Knoxville TN",
    "Location_RG_Country": "United States",
    "lat": 35.96064,
    "long": -83.92074,
    "title": "Knoxville TN - United States",
    "count": 6
  },
  {
    "_id": "6441d55a513989512df71480",
    "city_id": "rFFOtEq3",
    "Location_RG_City": "Hanover",
    "Location_RG_Country": "Germany",
    "lat": 52.375893,
    "long": 9.732011,
    "title": "Hanover - Germany",
    "count": 6
  },
  {
    "_id": "6441d55a513989512df71692",
    "city_id": "SOHUU5hb",
    "Location_RG_City": "Boise ID",
    "Location_RG_Country": "United States",
    "lat": 43.61871,
    "long": -116.21461,
    "title": "Boise ID - United States",
    "count": 6
  },
  {
    "_id": "6441d55a513989512df714fe",
    "city_id": "ck3aqJy5",
    "Location_RG_City": "Palm Springs CA",
    "Location_RG_Country": "United States",
    "lat": 33.830296,
    "long": -116.545296,
    "title": "Palm Springs CA - United States",
    "count": 6
  },
  {
    "_id": "6441d55a513989512df71942",
    "city_id": "MuvZwuK6",
    "Location_RG_City": "Tampa FL",
    "Location_RG_Country": "United States",
    "lat": 27.950575,
    "long": -82.45718,
    "title": "Tampa FL - United States",
    "count": 6
  },
  {
    "_id": "6441d55a513989512df7135c",
    "city_id": "hqIDgHbI",
    "Location_RG_City": "Santos SP",
    "Location_RG_Country": "Brazil",
    "lat": -23.967882,
    "long": -46.328888,
    "title": "Santos SP - Brazil",
    "count": 6
  },
  {
    "_id": "6441d55a513989512df718ed",
    "city_id": "cEpCIYhG",
    "Location_RG_City": "Oxford",
    "Location_RG_Country": "United Kingdom",
    "lat": 51.75202,
    "long": -1.2577263,
    "title": "Oxford - United Kingdom",
    "count": 6
  },
  {
    "_id": "6441d55a513989512df7165d",
    "city_id": "7rvuWwf7",
    "Location_RG_City": "Mumbai",
    "Location_RG_Country": "India",
    "lat": 19.075983,
    "long": 72.877655,
    "title": "Mumbai - India",
    "count": 6
  },
  {
    "_id": "6441d55a513989512df71918",
    "city_id": "pxBQvgE2",
    "Location_RG_City": "Cincinnati OH",
    "Location_RG_Country": "United States",
    "lat": 39.10312,
    "long": -84.51202,
    "title": "Cincinnati OH - United States",
    "count": 6
  },
  {
    "_id": "6441d55a513989512df716a1",
    "city_id": "fGkpLYwq",
    "Location_RG_City": "Cape Town",
    "Location_RG_Country": "South Africa",
    "lat": -33.92487,
    "long": 18.424055,
    "title": "Cape Town - South Africa",
    "count": 6
  },
  {
    "_id": "6441d55a513989512df7192c",
    "city_id": "eR8K4rBb",
    "Location_RG_City": "Tokyo",
    "Location_RG_Country": "Japan",
    "lat": 35.689487,
    "long": 139.69171,
    "title": "Tokyo - Japan",
    "count": 6
  },
  {
    "_id": "6441d55a513989512df71e97",
    "city_id": "f0YfCbTS",
    "Location_RG_City": "Calkini",
    "Location_RG_Country": "Mexico",
    "lat": 20.370855,
    "long": -90.05047,
    "title": "Calkini - Mexico",
    "count": 6
  },
  {
    "_id": "6441d55a513989512df71747",
    "city_id": "8zU3sFRz",
    "Location_RG_City": "Blackpool",
    "Location_RG_Country": "United Kingdom",
    "lat": 53.817505,
    "long": -3.0356748,
    "title": "Blackpool - United Kingdom",
    "count": 6
  },
  {
    "_id": "6441d55a513989512df71717",
    "city_id": "6zEdXIJs",
    "Location_RG_City": "Villavicencio",
    "Location_RG_Country": "Colombia",
    "lat": 4.151382,
    "long": -73.63769,
    "title": "Villavicencio - Colombia",
    "count": 6
  },
  {
    "_id": "6441d55a513989512df7182c",
    "city_id": "BolgITFa",
    "Location_RG_City": "Auckland",
    "Location_RG_Country": "New Zealand",
    "lat": -36.84846,
    "long": 174.76334,
    "title": "Auckland - New Zealand",
    "count": 6
  },
  {
    "_id": "6441d55a513989512df71c98",
    "city_id": "xKaC0mlq",
    "Location_RG_City": "Nairobi",
    "Location_RG_Country": "Kenya",
    "lat": -1.2920659,
    "long": 36.821945,
    "title": "Nairobi - Kenya",
    "count": 6
  },
  {
    "_id": "6441d55a513989512df718b0",
    "city_id": "dlemJmKy",
    "Location_RG_City": "Bad Vilbel",
    "Location_RG_Country": "Germany",
    "lat": 50.182335,
    "long": 8.739481,
    "title": "Bad Vilbel - Germany",
    "count": 6
  },
  {
    "_id": "6441d55a513989512df71c61",
    "city_id": "lInCFBpH",
    "Location_RG_City": "Zaragoza",
    "Location_RG_Country": "Spain",
    "lat": 41.648823,
    "long": -0.8890853,
    "title": "Zaragoza - Spain",
    "count": 6
  },
  {
    "_id": "6441d55a513989512df71679",
    "city_id": "xCy4sEmm",
    "Location_RG_City": "Eugene OR",
    "Location_RG_Country": "United States",
    "lat": 44.05207,
    "long": -123.086754,
    "title": "Eugene OR - United States",
    "count": 6
  },
  {
    "_id": "6441d55a513989512df71d7a",
    "city_id": "LHZkeK7d",
    "Location_RG_City": "New Delhi",
    "Location_RG_Country": "India",
    "lat": 28.61394,
    "long": 77.20902,
    "title": "New Delhi - India",
    "count": 6
  },
  {
    "_id": "6441d55a513989512df714a8",
    "city_id": "bg1fM50A",
    "Location_RG_City": "Alicante",
    "Location_RG_Country": "Spain",
    "lat": 38.345997,
    "long": -0.4906855,
    "title": "Alicante - Spain",
    "count": 6
  },
  {
    "_id": "6441d55a513989512df7189a",
    "city_id": "1lHyt385",
    "Location_RG_City": "Bandung",
    "Location_RG_Country": "Indonesia",
    "lat": -6.917464,
    "long": 107.619125,
    "title": "Bandung - Indonesia",
    "count": 6
  },
  {
    "_id": "6441d55a513989512df71408",
    "city_id": "vM6izi5P",
    "Location_RG_City": "Kolkata",
    "Location_RG_Country": "India",
    "lat": 22.572645,
    "long": 88.36389,
    "title": "Kolkata - India",
    "count": 6
  },
  {
    "_id": "6441d55a513989512df7146e",
    "city_id": "JBm5nuT9",
    "Location_RG_City": "Brampton",
    "Location_RG_Country": "Canada",
    "lat": 43.73155,
    "long": -79.76242,
    "title": "Brampton - Canada",
    "count": 6
  },
  {
    "_id": "6441d55a513989512df71a4c",
    "city_id": "g9dnuETc",
    "Location_RG_City": "Florence",
    "Location_RG_Country": "Italy",
    "lat": 43.76956,
    "long": 11.255814,
    "title": "Florence - Italy",
    "count": 6
  },
  {
    "_id": "6441d55a513989512df7141f",
    "city_id": "3Q8zFu4o",
    "Location_RG_City": "Cleveland OH",
    "Location_RG_Country": "United States",
    "lat": 41.49932,
    "long": -81.69436,
    "title": "Cleveland OH - United States",
    "count": 6
  },
  {
    "_id": "6441d55a513989512df713d8",
    "city_id": "k7PEveHp",
    "Location_RG_City": "Ancona",
    "Location_RG_Country": "Italy",
    "lat": 43.61583,
    "long": 13.518915,
    "title": "Ancona - Italy",
    "count": 6
  },
  {
    "_id": "6441d55a513989512df714c2",
    "city_id": "jKelPaRC",
    "Location_RG_City": "Chennai",
    "Location_RG_Country": "India",
    "lat": 13.08268,
    "long": 80.27072,
    "title": "Chennai - India",
    "count": 6
  },
  {
    "_id": "6441d55a513989512df71c69",
    "city_id": "bWJh7TNg",
    "Location_RG_City": "Kraków",
    "Location_RG_Country": "Poland",
    "lat": 50.06465,
    "long": 19.94498,
    "title": "Kraków - Poland",
    "count": 6
  },
  {
    "_id": "6441d55a513989512df71889",
    "city_id": "VDIKvdJb",
    "Location_RG_City": "Guayaquil",
    "Location_RG_Country": "Ecuador",
    "lat": -2.1709979,
    "long": -79.922356,
    "title": "Guayaquil - Ecuador",
    "count": 6
  },
  {
    "_id": "6441d55a513989512df7188f",
    "city_id": "5UTW0okj",
    "Location_RG_City": "Cagliari",
    "Location_RG_Country": "Italy",
    "lat": 39.223843,
    "long": 9.121661,
    "title": "Cagliari - Italy",
    "count": 6
  },
  {
    "_id": "6441d55a513989512df71804",
    "city_id": "YV9iOSCg",
    "Location_RG_City": "Novi Sad",
    "Location_RG_Country": "Serbia",
    "lat": 45.267136,
    "long": 19.83355,
    "title": "Novi Sad - Serbia",
    "count": 6
  },
  {
    "_id": "6441d55a513989512df714c0",
    "city_id": "zx1OVn7R",
    "Location_RG_City": "Belfast",
    "Location_RG_Country": "United Kingdom",
    "lat": 54.597286,
    "long": -5.93012,
    "title": "Belfast - United Kingdom",
    "count": 6
  },
  {
    "_id": "6441d55a513989512df7165a",
    "city_id": "cKenL5sw",
    "Location_RG_City": "Perth",
    "Location_RG_Country": "Australia",
    "lat": -31.950527,
    "long": 115.86046,
    "title": "Perth - Australia",
    "count": 6
  },
  {
    "_id": "6441d55a513989512df717e3",
    "city_id": "CHdqneKj",
    "Location_RG_City": "Baltimore MD",
    "Location_RG_Country": "United States",
    "lat": 39.290386,
    "long": -76.61219,
    "title": "Baltimore MD - United States",
    "count": 6
  },
  {
    "_id": "6441d55a513989512df715c1",
    "city_id": "a81yKusf",
    "Location_RG_City": "Nantes",
    "Location_RG_Country": "France",
    "lat": 47.218372,
    "long": -1.553621,
    "title": "Nantes - France",
    "count": 6
  },
  {
    "_id": "6441d55a513989512df71492",
    "city_id": "rL7zXHpA",
    "Location_RG_City": "Fort Worth TX",
    "Location_RG_Country": "United States",
    "lat": 32.75549,
    "long": -97.330765,
    "title": "Fort Worth TX - United States",
    "count": 6
  },
  {
    "_id": "6441d55a513989512df715e8",
    "city_id": "k6QT7p5r",
    "Location_RG_City": "Castelfranco Veneto",
    "Location_RG_Country": "Italy",
    "lat": 45.671696,
    "long": 11.928239,
    "title": "Castelfranco Veneto - Italy",
    "count": 6
  },
  {
    "_id": "6441d55a513989512df71c4c",
    "city_id": "KV7yz8fw",
    "Location_RG_City": "Arequipa",
    "Location_RG_Country": "Peru",
    "lat": -16.409048,
    "long": -71.53745,
    "title": "Arequipa - Peru",
    "count": 5
  },
  {
    "_id": "6441d55a513989512df715d0",
    "city_id": "sEpdAlHo",
    "Location_RG_City": "Murcia",
    "Location_RG_Country": "Spain",
    "lat": 37.99224,
    "long": -1.1306545,
    "title": "Murcia - Spain",
    "count": 5
  },
  {
    "_id": "6441d55a513989512df71bce",
    "city_id": "7O3qZHv8",
    "Location_RG_City": "Colombo",
    "Location_RG_Country": "Sri Lanka",
    "lat": 6.9270787,
    "long": 79.861244,
    "title": "Colombo - Sri Lanka",
    "count": 5
  },
  {
    "_id": "6441d55a513989512df71731",
    "city_id": "y1yiU35L",
    "Location_RG_City": "Vladikavkaz",
    "Location_RG_Country": "Russia",
    "lat": 43.025234,
    "long": 44.665977,
    "title": "Vladikavkaz - Russia",
    "count": 5
  },
  {
    "_id": "6441d55a513989512df71718",
    "city_id": "elV08pPZ",
    "Location_RG_City": "Maribor",
    "Location_RG_Country": "Slovenia",
    "lat": 46.55465,
    "long": 15.645882,
    "title": "Maribor - Slovenia",
    "count": 5
  },
  {
    "_id": "6441d55a513989512df715f6",
    "city_id": "leMlzS6x",
    "Location_RG_City": "Phoenix AZ",
    "Location_RG_Country": "United States",
    "lat": 33.448376,
    "long": -112.074036,
    "title": "Phoenix AZ - United States",
    "count": 5
  },
  {
    "_id": "6441d55a513989512df71ed1",
    "city_id": "Yjpo8ofK",
    "Location_RG_City": "Kigali",
    "Location_RG_Country": "Rwanda",
    "lat": -1.9705786,
    "long": 30.10443,
    "title": "Kigali - Rwanda",
    "count": 5
  },
  {
    "_id": "6441d55a513989512df71472",
    "city_id": "5rONQ7q1",
    "Location_RG_City": "Branson MO",
    "Location_RG_Country": "United States",
    "lat": 36.643673,
    "long": -93.21851,
    "title": "Branson MO - United States",
    "count": 5
  },
  {
    "_id": "6441d55a513989512df718d0",
    "city_id": "a1hjVeBH",
    "Location_RG_City": "Long Beach CA",
    "Location_RG_Country": "United States",
    "lat": 33.77005,
    "long": -118.19374,
    "title": "Long Beach CA - United States",
    "count": 5
  },
  {
    "_id": "6441d55a513989512df715d5",
    "city_id": "3AlZfY1Y",
    "Location_RG_City": "Calgary",
    "Location_RG_Country": "Canada",
    "lat": 51.048615,
    "long": -114.07085,
    "title": "Calgary - Canada",
    "count": 5
  },
  {
    "_id": "6441d55a513989512df714ac",
    "city_id": "hQV36sMn",
    "Location_RG_City": "Aberdeen",
    "Location_RG_Country": "United Kingdom",
    "lat": 57.149715,
    "long": -2.094278,
    "title": "Aberdeen - United Kingdom",
    "count": 5
  },
  {
    "_id": "6441d55a513989512df716e1",
    "city_id": "M75MCwe5",
    "Location_RG_City": "Lonigo",
    "Location_RG_Country": "Italy",
    "lat": 45.388275,
    "long": 11.387862,
    "title": "Lonigo - Italy",
    "count": 5
  },
  {
    "_id": "6441d55a513989512df71597",
    "city_id": "pWf7DLZ4",
    "Location_RG_City": "Greensboro NC",
    "Location_RG_Country": "United States",
    "lat": 36.072636,
    "long": -79.79198,
    "title": "Greensboro NC - United States",
    "count": 5
  },
  {
    "_id": "6441d55a513989512df714df",
    "city_id": "7HWxbpCc",
    "Location_RG_City": "Alexandroupoli",
    "Location_RG_Country": "Greece",
    "lat": 40.84572,
    "long": 25.873962,
    "title": "Alexandroupoli - Greece",
    "count": 5
  },
  {
    "_id": "6441d55a513989512df71df1",
    "city_id": "VuoZLy9Q",
    "Location_RG_City": "Semarang",
    "Location_RG_Country": "Indonesia",
    "lat": -7.005145,
    "long": 110.438126,
    "title": "Semarang - Indonesia",
    "count": 5
  },
  {
    "_id": "6441d55a513989512df71844",
    "city_id": "Gy5RVzAX",
    "Location_RG_City": "Fargo ND",
    "Location_RG_Country": "United States",
    "lat": 46.877186,
    "long": -96.7898,
    "title": "Fargo ND - United States",
    "count": 5
  },
  {
    "_id": "6441d55a513989512df7155a",
    "city_id": "5cVvWh9V",
    "Location_RG_City": "Cork",
    "Location_RG_Country": "Ireland",
    "lat": 51.896893,
    "long": -8.486316,
    "title": "Cork - Ireland",
    "count": 5
  },
  {
    "_id": "6441d55a513989512df713c0",
    "city_id": "hAcQoHeI",
    "Location_RG_City": "Nice",
    "Location_RG_Country": "France",
    "lat": 43.710175,
    "long": 7.2619534,
    "title": "Nice - France",
    "count": 5
  },
  {
    "_id": "6441d55a513989512df713b1",
    "city_id": "xGCdtpPi",
    "Location_RG_City": "Christchurch",
    "Location_RG_Country": "New Zealand",
    "lat": -43.532055,
    "long": 172.63623,
    "title": "Christchurch - New Zealand",
    "count": 5
  },
  {
    "_id": "6441d55a513989512df713e9",
    "city_id": "7wOiyMnJ",
    "Location_RG_City": "San Pedro Sula",
    "Location_RG_Country": "Honduras",
    "lat": 15.503889,
    "long": -88.013885,
    "title": "San Pedro Sula - Honduras",
    "count": 5
  },
  {
    "_id": "6441d55a513989512df71bb4",
    "city_id": "0AVyR0QK",
    "Location_RG_City": "Darwin",
    "Location_RG_Country": "Australia",
    "lat": -12.46344,
    "long": 130.84564,
    "title": "Darwin - Australia",
    "count": 5
  },
  {
    "_id": "6441d55a513989512df71898",
    "city_id": "euYr2B4j",
    "Location_RG_City": "Bristol",
    "Location_RG_Country": "United Kingdom",
    "lat": 51.454514,
    "long": -2.58791,
    "title": "Bristol - United Kingdom",
    "count": 5
  },
  {
    "_id": "6441d55a513989512df71e1d",
    "city_id": "WgJbBi4M",
    "Location_RG_City": "Surat",
    "Location_RG_Country": "India",
    "lat": 21.17024,
    "long": 72.83106,
    "title": "Surat - India",
    "count": 5
  },
  {
    "_id": "6441d55a513989512df71502",
    "city_id": "8eirDwDi",
    "Location_RG_City": "Gold Coast City",
    "Location_RG_Country": "Australia",
    "lat": -28.016666,
    "long": 153.4,
    "title": "Gold Coast City - Australia",
    "count": 5
  },
  {
    "_id": "6441d55a513989512df71385",
    "city_id": "lo4LFM8P",
    "Location_RG_City": "Staffanstorp",
    "Location_RG_Country": "Sweden",
    "lat": 55.641064,
    "long": 13.212229,
    "title": "Staffanstorp - Sweden",
    "count": 5
  },
  {
    "_id": "6441d55a513989512df7188b",
    "city_id": "Y3FpsQ04",
    "Location_RG_City": "Prishtina",
    "Location_RG_Country": "Kosovo",
    "lat": 42.662914,
    "long": 21.165503,
    "title": "Prishtina - Kosovo",
    "count": 5
  },
  {
    "_id": "6441d55a513989512df716c5",
    "city_id": "ACkutBKD",
    "Location_RG_City": "Ipswich",
    "Location_RG_Country": "United Kingdom",
    "lat": 52.056736,
    "long": 1.14822,
    "title": "Ipswich - United Kingdom",
    "count": 5
  },
  {
    "_id": "6441d55a513989512df71421",
    "city_id": "YGpOy14a",
    "Location_RG_City": "Montgomery AL",
    "Location_RG_Country": "United States",
    "lat": 32.366806,
    "long": -86.29997,
    "title": "Montgomery AL - United States",
    "count": 5
  },
  {
    "_id": "6441d55a513989512df71367",
    "city_id": "qfl6lVCy",
    "Location_RG_City": "Constanța",
    "Location_RG_Country": "Romania",
    "lat": 44.1598,
    "long": 28.634813,
    "title": "Constanța - Romania",
    "count": 5
  },
  {
    "_id": "6441d55a513989512df71737",
    "city_id": "8C8tgfK0",
    "Location_RG_City": "Varginha MG",
    "Location_RG_Country": "Brazil",
    "lat": -21.556051,
    "long": -45.436844,
    "title": "Varginha MG - Brazil",
    "count": 5
  },
  {
    "_id": "6441d55a513989512df714fb",
    "city_id": "jCJH3DWP",
    "Location_RG_City": "Venice",
    "Location_RG_Country": "Italy",
    "lat": 45.44085,
    "long": 12.3155155,
    "title": "Venice - Italy",
    "count": 5
  },
  {
    "_id": "6441d55a513989512df71781",
    "city_id": "Yhz2zhtu",
    "Location_RG_City": "Milwaukee WI",
    "Location_RG_Country": "United States",
    "lat": 43.038902,
    "long": -87.90647,
    "title": "Milwaukee WI - United States",
    "count": 5
  },
  {
    "_id": "6441d55a513989512df71587",
    "city_id": "nIg7G0wC",
    "Location_RG_City": "Exeter",
    "Location_RG_Country": "United Kingdom",
    "lat": 50.71841,
    "long": -3.533899,
    "title": "Exeter - United Kingdom",
    "count": 5
  },
  {
    "_id": "6441d55a513989512df719cd",
    "city_id": "l46BtqC8",
    "Location_RG_City": "Santiago De Los Caballeros",
    "Location_RG_Country": "Dominican Republic",
    "lat": 19.479197,
    "long": -70.693054,
    "title": "Santiago De Los Caballeros - Dominican Republic",
    "count": 5
  },
  {
    "_id": "6441d55a513989512df719b5",
    "city_id": "ahcrrRyV",
    "Location_RG_City": "Clermont-Ferrand",
    "Location_RG_Country": "France",
    "lat": 45.77722,
    "long": 3.087025,
    "title": "Clermont-Ferrand - France",
    "count": 5
  },
  {
    "_id": "6441d55a513989512df715b3",
    "city_id": "VDjqHmJF",
    "Location_RG_City": "Rabat",
    "Location_RG_Country": "Morocco",
    "lat": 33.971592,
    "long": -6.849813,
    "title": "Rabat - Morocco",
    "count": 5
  },
  {
    "_id": "6441d55a513989512df716e7",
    "city_id": "mJ3XtgpB",
    "Location_RG_City": "Portland OR",
    "Location_RG_Country": "United States",
    "lat": 45.523064,
    "long": -122.67648,
    "title": "Portland OR - United States",
    "count": 5
  },
  {
    "_id": "6441d55a513989512df71da2",
    "city_id": "5gooj9KL",
    "Location_RG_City": "Tirana",
    "Location_RG_Country": "Albania",
    "lat": 41.327545,
    "long": 19.818699,
    "title": "Tirana - Albania",
    "count": 5
  },
  {
    "_id": "6441d55a513989512df71429",
    "city_id": "2D6VkaAd",
    "Location_RG_City": "Gothenburg",
    "Location_RG_Country": "Sweden",
    "lat": 57.70887,
    "long": 11.97456,
    "title": "Gothenburg - Sweden",
    "count": 5
  },
  {
    "_id": "6441d55a513989512df7141d",
    "city_id": "3pbxng1e",
    "Location_RG_City": "Siloam Springs AR",
    "Location_RG_Country": "United States",
    "lat": 36.188137,
    "long": -94.5405,
    "title": "Siloam Springs AR - United States",
    "count": 5
  },
  {
    "_id": "6441d55a513989512df7179b",
    "city_id": "IeVLmxBx",
    "Location_RG_City": "Xalapa",
    "Location_RG_Country": "Mexico",
    "lat": 19.543776,
    "long": -96.91018,
    "title": "Xalapa - Mexico",
    "count": 5
  },
  {
    "_id": "6441d55a513989512df714c6",
    "city_id": "WlHDjJbO",
    "Location_RG_City": "Alessandria",
    "Location_RG_Country": "Italy",
    "lat": 44.907272,
    "long": 8.61168,
    "title": "Alessandria - Italy",
    "count": 5
  },
  {
    "_id": "6441d55a513989512df71611",
    "city_id": "ZDciHO7L",
    "Location_RG_City": "Baku",
    "Location_RG_Country": "Azerbaijan",
    "lat": 40.40926,
    "long": 49.867092,
    "title": "Baku - Azerbaijan",
    "count": 5
  },
  {
    "_id": "6441d55a513989512df719a5",
    "city_id": "vtWTDbUW",
    "Location_RG_City": "Cairo",
    "Location_RG_Country": "Egypt",
    "lat": 30.04442,
    "long": 31.235712,
    "title": "Cairo - Egypt",
    "count": 5
  },
  {
    "_id": "6441d55a513989512df7182e",
    "city_id": "o7qcngj1",
    "Location_RG_City": "Malden",
    "Location_RG_Country": "Netherlands",
    "lat": 51.783287,
    "long": 5.853325,
    "title": "Malden - Netherlands",
    "count": 5
  },
  {
    "_id": "6441d55a513989512df71755",
    "city_id": "xVdAdwxb",
    "Location_RG_City": "Edmonton",
    "Location_RG_Country": "Canada",
    "lat": 53.544388,
    "long": -113.49093,
    "title": "Edmonton - Canada",
    "count": 5
  },
  {
    "_id": "6441d55a513989512df71351",
    "city_id": "3vxaDEK7",
    "Location_RG_City": "Bucaramanga",
    "Location_RG_Country": "Colombia",
    "lat": 7.119349,
    "long": -73.12274,
    "title": "Bucaramanga - Colombia",
    "count": 5
  },
  {
    "_id": "6441d55a513989512df7189e",
    "city_id": "8rD5mXZo",
    "Location_RG_City": "Doha",
    "Location_RG_Country": "Qatar",
    "lat": 25.285448,
    "long": 51.53104,
    "title": "Doha - Qatar",
    "count": 5
  },
  {
    "_id": "6441d55a513989512df71565",
    "city_id": "JgcswzYU",
    "Location_RG_City": "Buffalo NY",
    "Location_RG_Country": "United States",
    "lat": 42.886448,
    "long": -78.87837,
    "title": "Buffalo NY - United States",
    "count": 5
  },
  {
    "_id": "6441d55a513989512df71a09",
    "city_id": "YJk7GzEq",
    "Location_RG_City": "Dubai",
    "Location_RG_Country": "United Arab Emirates",
    "lat": 25.20485,
    "long": 55.270782,
    "title": "Dubai - United Arab Emirates",
    "count": 5
  },
  {
    "_id": "6441d55a513989512df714a7",
    "city_id": "aaLuyx7C",
    "Location_RG_City": "St. Louis MO",
    "Location_RG_Country": "United States",
    "lat": 38.627003,
    "long": -90.1994,
    "title": "St. Louis MO - United States",
    "count": 5
  },
  {
    "_id": "6441d55a513989512df71416",
    "city_id": "STWuTWwy",
    "Location_RG_City": "Catania",
    "Location_RG_Country": "Italy",
    "lat": 37.507877,
    "long": 15.083031,
    "title": "Catania - Italy",
    "count": 5
  },
  {
    "_id": "6441d55a513989512df713ba",
    "city_id": "1HQ4CS75",
    "Location_RG_City": "Cúcuta",
    "Location_RG_Country": "Colombia",
    "lat": 7.889097,
    "long": -72.49669,
    "title": "Cúcuta - Colombia",
    "count": 5
  },
  {
    "_id": "6441d55a513989512df7164f",
    "city_id": "JyRW71GG",
    "Location_RG_City": "Tula",
    "Location_RG_Country": "Russia",
    "lat": 54.204838,
    "long": 37.618492,
    "title": "Tula - Russia",
    "count": 5
  },
  {
    "_id": "6441d55a513989512df71369",
    "city_id": "xphEgrZk",
    "Location_RG_City": "Recife PE",
    "Location_RG_Country": "Brazil",
    "lat": -8.047563,
    "long": -34.876965,
    "title": "Recife PE - Brazil",
    "count": 5
  },
  {
    "_id": "6441d55a513989512df7152d",
    "city_id": "FlL4ab42",
    "Location_RG_City": "Florianópolis SC",
    "Location_RG_Country": "Brazil",
    "lat": -27.595377,
    "long": -48.54805,
    "title": "Florianópolis SC - Brazil",
    "count": 5
  },
  {
    "_id": "6441d55a513989512df71df8",
    "city_id": "DzoffVgF",
    "Location_RG_City": "Louisville KY",
    "Location_RG_Country": "United States",
    "lat": 38.252666,
    "long": -85.75845,
    "title": "Louisville KY - United States",
    "count": 5
  },
  {
    "_id": "6441d55a513989512df7136d",
    "city_id": "dLnmoass",
    "Location_RG_City": "Yekaterinburg",
    "Location_RG_Country": "Russia",
    "lat": 56.838924,
    "long": 60.6057,
    "title": "Yekaterinburg - Russia",
    "count": 5
  },
  {
    "_id": "6441d55a513989512df71519",
    "city_id": "S06g5cGl",
    "Location_RG_City": "George Town",
    "Location_RG_Country": "Cayman Islands",
    "lat": 19.286932,
    "long": -81.36744,
    "title": "George Town - Cayman Islands",
    "count": 5
  },
  {
    "_id": "6441d55a513989512df7165e",
    "city_id": "8VrEWOLi",
    "Location_RG_City": "Indianapolis IN",
    "Location_RG_Country": "United States",
    "lat": 39.768402,
    "long": -86.158066,
    "title": "Indianapolis IN - United States",
    "count": 5
  },
  {
    "_id": "6441d55a513989512df7162c",
    "city_id": "FZ2DA84B",
    "Location_RG_City": "Graz",
    "Location_RG_Country": "Austria",
    "lat": 47.070713,
    "long": 15.439504,
    "title": "Graz - Austria",
    "count": 5
  },
  {
    "_id": "6441d55a513989512df71821",
    "city_id": "VFyKPYqY",
    "Location_RG_City": "Verona",
    "Location_RG_Country": "Italy",
    "lat": 45.438385,
    "long": 10.991622,
    "title": "Verona - Italy",
    "count": 5
  },
  {
    "_id": "6441d55a513989512df71727",
    "city_id": "zmNh9TwE",
    "Location_RG_City": "Elâzığ",
    "Location_RG_Country": "Turkey",
    "lat": 38.674816,
    "long": 39.222515,
    "title": "Elâzığ - Turkey",
    "count": 4
  },
  {
    "_id": "6441d55a513989512df71be2",
    "city_id": "J89CLIwB",
    "Location_RG_City": "Várzea Grande MT",
    "Location_RG_Country": "Brazil",
    "lat": -15.650513,
    "long": -56.135468,
    "title": "Várzea Grande MT - Brazil",
    "count": 4
  },
  {
    "_id": "6441d55a513989512df716f1",
    "city_id": "BAybPmHT",
    "Location_RG_City": "Santa Cruz de Tenerife",
    "Location_RG_Country": "Spain",
    "lat": 28.463629,
    "long": -16.251846,
    "title": "Santa Cruz de Tenerife - Spain",
    "count": 4
  },
  {
    "_id": "6441d55a513989512df7196e",
    "city_id": "QatXdaoZ",
    "Location_RG_City": "Kochi",
    "Location_RG_Country": "India",
    "lat": 9.931232,
    "long": 76.2673,
    "title": "Kochi - India",
    "count": 4
  },
  {
    "_id": "6441d55a513989512df71342",
    "city_id": "WNINlEdV",
    "Location_RG_City": "Durban",
    "Location_RG_Country": "South Africa",
    "lat": -29.85868,
    "long": 31.021841,
    "title": "Durban - South Africa",
    "count": 4
  },
  {
    "_id": "6441d55a513989512df71ab0",
    "city_id": "N0WlitFN",
    "Location_RG_City": "Sunshine Coast",
    "Location_RG_Country": "Australia",
    "lat": -26.65,
    "long": 153.06667,
    "title": "Sunshine Coast - Australia",
    "count": 4
  },
  {
    "_id": "6441d55a513989512df7159e",
    "city_id": "kJDkkpP4",
    "Location_RG_City": "Araraquara SP",
    "Location_RG_Country": "Brazil",
    "lat": -21.784826,
    "long": -48.17865,
    "title": "Araraquara SP - Brazil",
    "count": 4
  },
  {
    "_id": "6441d55a513989512df71646",
    "city_id": "ImE8FooK",
    "Location_RG_City": "Koper",
    "Location_RG_Country": "Slovenia",
    "lat": 45.548058,
    "long": 13.730187,
    "title": "Koper - Slovenia",
    "count": 4
  },
  {
    "_id": "6441d55a513989512df713db",
    "city_id": "SM1evFPG",
    "Location_RG_City": "Sheffield",
    "Location_RG_Country": "United Kingdom",
    "lat": 53.38113,
    "long": -1.470085,
    "title": "Sheffield - United Kingdom",
    "count": 4
  },
  {
    "_id": "6441d55a513989512df71f56",
    "city_id": "I9qHJwcb",
    "Location_RG_City": "Saint Joseph MO",
    "Location_RG_Country": "United States",
    "lat": 39.767456,
    "long": -94.84668,
    "title": "Saint Joseph MO - United States",
    "count": 4
  },
  {
    "_id": "6441d55a513989512df71647",
    "city_id": "kxEs9l2m",
    "Location_RG_City": "Seoul",
    "Location_RG_Country": "South Korea",
    "lat": 37.566536,
    "long": 126.97797,
    "title": "Seoul - South Korea",
    "count": 4
  },
  {
    "_id": "6441d55a513989512df7175b",
    "city_id": "7F6IKw28",
    "Location_RG_City": "Suva",
    "Location_RG_Country": "Fiji",
    "lat": -18.12481,
    "long": 178.45007,
    "title": "Suva - Fiji",
    "count": 4
  },
  {
    "_id": "6441d55a513989512df7149a",
    "city_id": "B5V4XUBi",
    "Location_RG_City": "Dubuque IA",
    "Location_RG_Country": "United States",
    "lat": 42.500557,
    "long": -90.66457,
    "title": "Dubuque IA - United States",
    "count": 4
  },
  {
    "_id": "6441d55a513989512df719a0",
    "city_id": "bDDBkV4g",
    "Location_RG_City": "Bydgoszcz",
    "Location_RG_Country": "Poland",
    "lat": 53.12348,
    "long": 18.008438,
    "title": "Bydgoszcz - Poland",
    "count": 4
  },
  {
    "_id": "6441d55a513989512df71ea5",
    "city_id": "lKkftW3g",
    "Location_RG_City": "Nithiravilai",
    "Location_RG_Country": "India",
    "lat": 8.275801,
    "long": 77.14133,
    "title": "Nithiravilai - India",
    "count": 4
  },
  {
    "_id": "6441d55a513989512df71688",
    "city_id": "FEOKUmp1",
    "Location_RG_City": "Milton Keynes",
    "Location_RG_Country": "United Kingdom",
    "lat": 52.040623,
    "long": -0.7594171,
    "title": "Milton Keynes - United Kingdom",
    "count": 4
  },
  {
    "_id": "6441d55a513989512df713de",
    "city_id": "LHIaxErZ",
    "Location_RG_City": "Rennes",
    "Location_RG_Country": "France",
    "lat": 48.117268,
    "long": -1.6777925,
    "title": "Rennes - France",
    "count": 4
  },
  {
    "_id": "6441d55a513989512df714aa",
    "city_id": "yxD7EL06",
    "Location_RG_City": "Maspalomas",
    "Location_RG_Country": "Spain",
    "lat": 27.760561,
    "long": -15.586018,
    "title": "Maspalomas - Spain",
    "count": 4
  },
  {
    "_id": "6441d55a513989512df719a4",
    "city_id": "zoJyOqjp",
    "Location_RG_City": "Maidstone",
    "Location_RG_Country": "United Kingdom",
    "lat": 51.270363,
    "long": 0.522699,
    "title": "Maidstone - United Kingdom",
    "count": 4
  },
  {
    "_id": "6441d55a513989512df71347",
    "city_id": "lxuUaApN",
    "Location_RG_City": "Kiel",
    "Location_RG_Country": "Germany",
    "lat": 54.32329,
    "long": 10.122766,
    "title": "Kiel - Germany",
    "count": 4
  },
  {
    "_id": "6441d55a513989512df713a7",
    "city_id": "NbhRjP6p",
    "Location_RG_City": "Niterói RJ",
    "Location_RG_Country": "Brazil",
    "lat": -22.885897,
    "long": -43.115223,
    "title": "Niterói RJ - Brazil",
    "count": 4
  },
  {
    "_id": "6441d55a513989512df71752",
    "city_id": "ivQaXXkm",
    "Location_RG_City": "Santa Maria RS",
    "Location_RG_Country": "Brazil",
    "lat": -29.68725,
    "long": -53.81545,
    "title": "Santa Maria RS - Brazil",
    "count": 4
  },
  {
    "_id": "6441d55a513989512df71504",
    "city_id": "YpcVhhEF",
    "Location_RG_City": "Krasnodar",
    "Location_RG_Country": "Russia",
    "lat": 45.03927,
    "long": 38.98722,
    "title": "Krasnodar - Russia",
    "count": 4
  },
  {
    "_id": "6441d55a513989512df71511",
    "city_id": "Ho58GDOX",
    "Location_RG_City": "San Diego CA",
    "Location_RG_Country": "United States",
    "lat": 32.715736,
    "long": -117.16109,
    "title": "San Diego CA - United States",
    "count": 4
  },
  {
    "_id": "6441d55a513989512df71864",
    "city_id": "viQpgDsB",
    "Location_RG_City": "Jerusalem",
    "Location_RG_Country": "Israel",
    "lat": 31.768318,
    "long": 35.21371,
    "title": "Jerusalem - Israel",
    "count": 4
  },
  {
    "_id": "6441d55a513989512df715e5",
    "city_id": "hw7TPJTw",
    "Location_RG_City": "Ballarat City",
    "Location_RG_Country": "Australia",
    "lat": -37.56216,
    "long": 143.85025,
    "title": "Ballarat City - Australia",
    "count": 4
  },
  {
    "_id": "6441d55a513989512df71715",
    "city_id": "kytwU6a4",
    "Location_RG_City": "Rochester NY",
    "Location_RG_Country": "United States",
    "lat": 43.16103,
    "long": -77.61092,
    "title": "Rochester NY - United States",
    "count": 4
  },
  {
    "_id": "6441d55a513989512df7157c",
    "city_id": "k0zGv4DI",
    "Location_RG_City": "Bilbao",
    "Location_RG_Country": "Spain",
    "lat": 43.263012,
    "long": -2.9349852,
    "title": "Bilbao - Spain",
    "count": 4
  },
  {
    "_id": "6441d55a513989512df71c5a",
    "city_id": "vNNhOi4J",
    "Location_RG_City": "Würzburg",
    "Location_RG_Country": "Germany",
    "lat": 49.791306,
    "long": 9.953355,
    "title": "Würzburg - Germany",
    "count": 4
  },
  {
    "_id": "6441d55a513989512df715dc",
    "city_id": "sKJujdu0",
    "Location_RG_City": "Petropavlovsk-Kamchatsky",
    "Location_RG_Country": "Russia",
    "lat": 53.040913,
    "long": 158.67772,
    "title": "Petropavlovsk-Kamchatsky - Russia",
    "count": 4
  },
  {
    "_id": "6441d55a513989512df71561",
    "city_id": "BEpv51KL",
    "Location_RG_City": "Kozani",
    "Location_RG_Country": "Greece",
    "lat": 40.30058,
    "long": 21.789814,
    "title": "Kozani - Greece",
    "count": 4
  },
  {
    "_id": "6441d55a513989512df71c89",
    "city_id": "79w2I3he",
    "Location_RG_City": "Winchester",
    "Location_RG_Country": "United Kingdom",
    "lat": 51.059772,
    "long": -1.310142,
    "title": "Winchester - United Kingdom",
    "count": 4
  },
  {
    "_id": "6441d55a513989512df71645",
    "city_id": "GfwecgE5",
    "Location_RG_City": "Banja Luka",
    "Location_RG_Country": "Bosnia and Herzegovina",
    "lat": 44.772182,
    "long": 17.191,
    "title": "Banja Luka - Bosnia and Herzegovina",
    "count": 4
  },
  {
    "_id": "6441d55a513989512df71448",
    "city_id": "oHcdAaW1",
    "Location_RG_City": "Columbus OH",
    "Location_RG_Country": "United States",
    "lat": 39.961174,
    "long": -82.998795,
    "title": "Columbus OH - United States",
    "count": 4
  },
  {
    "_id": "6441d55a513989512df715c5",
    "city_id": "VU38WtY9",
    "Location_RG_City": "Ostrava",
    "Location_RG_Country": "Czechia",
    "lat": 49.820923,
    "long": 18.262524,
    "title": "Ostrava - Czechia",
    "count": 4
  },
  {
    "_id": "6441d55a513989512df71490",
    "city_id": "X2bBm3Rg",
    "Location_RG_City": "Brest",
    "Location_RG_Country": "France",
    "lat": 48.390392,
    "long": -4.486076,
    "title": "Brest - France",
    "count": 4
  },
  {
    "_id": "6441d55a513989512df713d9",
    "city_id": "rfA9HPmx",
    "Location_RG_City": "Mount Pleasant MI",
    "Location_RG_Country": "United States",
    "lat": 43.59781,
    "long": -84.76752,
    "title": "Mount Pleasant MI - United States",
    "count": 4
  },
  {
    "_id": "6441d55a513989512df71438",
    "city_id": "TaXPW1ZQ",
    "Location_RG_City": "Caxias do Sul RS",
    "Location_RG_Country": "Brazil",
    "lat": -29.163403,
    "long": -51.17967,
    "title": "Caxias do Sul RS - Brazil",
    "count": 4
  },
  {
    "_id": "6441d55a513989512df7192f",
    "city_id": "XVrusDvV",
    "Location_RG_City": "Yoshkar-Ola",
    "Location_RG_Country": "Russia",
    "lat": 56.64022,
    "long": 47.883858,
    "title": "Yoshkar-Ola - Russia",
    "count": 4
  },
  {
    "_id": "6441d55a513989512df71833",
    "city_id": "CRVDk8z6",
    "Location_RG_City": "Canberra",
    "Location_RG_Country": "Australia",
    "lat": -35.282,
    "long": 149.12868,
    "title": "Canberra - Australia",
    "count": 4
  },
  {
    "_id": "6441d55a513989512df714ff",
    "city_id": "Lc5d7EdP",
    "Location_RG_City": "Vancouver",
    "Location_RG_Country": "Canada",
    "lat": 49.28273,
    "long": -123.120735,
    "title": "Vancouver - Canada",
    "count": 4
  },
  {
    "_id": "6441d55a513989512df71677",
    "city_id": "sEuSUJ58",
    "Location_RG_City": "Stoke-on-Trent",
    "Location_RG_Country": "United Kingdom",
    "lat": 53.002666,
    "long": -2.179404,
    "title": "Stoke-on-Trent - United Kingdom",
    "count": 4
  },
  {
    "_id": "6441d55a513989512df7151f",
    "city_id": "KnYDdnLA",
    "Location_RG_City": "Salt Lake City UT",
    "Location_RG_Country": "United States",
    "lat": 40.76078,
    "long": -111.891045,
    "title": "Salt Lake City UT - United States",
    "count": 4
  },
  {
    "_id": "6441d55a513989512df71609",
    "city_id": "CJGlgoDo",
    "Location_RG_City": "Torquay",
    "Location_RG_Country": "United Kingdom",
    "lat": 50.46192,
    "long": -3.525315,
    "title": "Torquay - United Kingdom",
    "count": 4
  },
  {
    "_id": "6441d55a513989512df71802",
    "city_id": "IcUITJhG",
    "Location_RG_City": "Eupen",
    "Location_RG_Country": "Belgium",
    "lat": 50.629204,
    "long": 6.033711,
    "title": "Eupen - Belgium",
    "count": 4
  },
  {
    "_id": "6441d55a513989512df71ba3",
    "city_id": "sqawlQKH",
    "Location_RG_City": "Reading",
    "Location_RG_Country": "United Kingdom",
    "lat": 51.454266,
    "long": -0.9781303,
    "title": "Reading - United Kingdom",
    "count": 4
  },
  {
    "_id": "6441d55a513989512df71950",
    "city_id": "GB8sO1DW",
    "Location_RG_City": "Helsinki",
    "Location_RG_Country": "Finland",
    "lat": 60.169857,
    "long": 24.93838,
    "title": "Helsinki - Finland",
    "count": 4
  },
  {
    "_id": "6441d55a513989512df71dd1",
    "city_id": "Bkrrvoix",
    "Location_RG_City": "Thiruvananthapuram",
    "Location_RG_Country": "India",
    "lat": 8.524139,
    "long": 76.93664,
    "title": "Thiruvananthapuram - India",
    "count": 4
  },
  {
    "_id": "6441d55a513989512df716b2",
    "city_id": "hwHSyh9T",
    "Location_RG_City": "Bojnice",
    "Location_RG_Country": "Slovakia",
    "lat": 48.77884,
    "long": 18.582687,
    "title": "Bojnice - Slovakia",
    "count": 4
  },
  {
    "_id": "6441d55a513989512df71708",
    "city_id": "zBHMVgSj",
    "Location_RG_City": "Minneapolis MN",
    "Location_RG_Country": "United States",
    "lat": 44.977753,
    "long": -93.26501,
    "title": "Minneapolis MN - United States",
    "count": 4
  },
  {
    "_id": "6441d55a513989512df717ac",
    "city_id": "zAloDJKA",
    "Location_RG_City": "Kampala",
    "Location_RG_Country": "Uganda",
    "lat": 0.34530115,
    "long": 32.58117,
    "title": "Kampala - Uganda",
    "count": 4
  },
  {
    "_id": "6441d55a513989512df7150b",
    "city_id": "gy0tbJWP",
    "Location_RG_City": "Providence RI",
    "Location_RG_Country": "United States",
    "lat": 41.82399,
    "long": -71.412834,
    "title": "Providence RI - United States",
    "count": 4
  },
  {
    "_id": "6441d55a513989512df716be",
    "city_id": "6lbGlnG1",
    "Location_RG_City": "Ghent",
    "Location_RG_Country": "Belgium",
    "lat": 51.05434,
    "long": 3.7174244,
    "title": "Ghent - Belgium",
    "count": 4
  },
  {
    "_id": "6441d55a513989512df713c9",
    "city_id": "FAocTMJo",
    "Location_RG_City": "Tórshavn",
    "Location_RG_Country": "Faroe Islands",
    "lat": 62.012356,
    "long": -6.7705803,
    "title": "Tórshavn - Faroe Islands",
    "count": 4
  },
  {
    "_id": "6441d55a513989512df71662",
    "city_id": "mQMqLAyI",
    "Location_RG_City": "Santa Marta",
    "Location_RG_Country": "Colombia",
    "lat": 11.240355,
    "long": -74.21102,
    "title": "Santa Marta - Colombia",
    "count": 4
  },
  {
    "_id": "6441d55a513989512df71397",
    "city_id": "31cdNRcR",
    "Location_RG_City": "Apeldoorn",
    "Location_RG_Country": "Netherlands",
    "lat": 52.20355,
    "long": 5.959869,
    "title": "Apeldoorn - Netherlands",
    "count": 4
  },
  {
    "_id": "6441d55a513989512df71813",
    "city_id": "6t1sKfuZ",
    "Location_RG_City": "Salzburg",
    "Location_RG_Country": "Austria",
    "lat": 47.80949,
    "long": 13.05501,
    "title": "Salzburg - Austria",
    "count": 4
  },
  {
    "_id": "6441d55a513989512df71f3f",
    "city_id": "HRMtPq9A",
    "Location_RG_City": "Osogbo",
    "Location_RG_Country": "Nigeria",
    "lat": 7.782671,
    "long": 4.5418143,
    "title": "Osogbo - Nigeria",
    "count": 4
  },
  {
    "_id": "6441d55a513989512df713e3",
    "city_id": "Qu9ccWUt",
    "Location_RG_City": "Sion",
    "Location_RG_Country": "Switzerland",
    "lat": 46.233124,
    "long": 7.360626,
    "title": "Sion - Switzerland",
    "count": 4
  },
  {
    "_id": "6441d55a513989512df7161f",
    "city_id": "e3OK8k5B",
    "Location_RG_City": "Bath",
    "Location_RG_Country": "United Kingdom",
    "lat": 51.3758,
    "long": -2.3599038,
    "title": "Bath - United Kingdom",
    "count": 4
  },
  {
    "_id": "6441d55a513989512df714bb",
    "city_id": "DFYIUBpn",
    "Location_RG_City": "Valladolid",
    "Location_RG_Country": "Spain",
    "lat": 41.652252,
    "long": -4.724532,
    "title": "Valladolid - Spain",
    "count": 4
  },
  {
    "_id": "6441d55a513989512df719db",
    "city_id": "iRdtjUXF",
    "Location_RG_City": "Dayton OH",
    "Location_RG_Country": "United States",
    "lat": 39.75895,
    "long": -84.191605,
    "title": "Dayton OH - United States",
    "count": 4
  },
  {
    "_id": "6441d55a513989512df715a4",
    "city_id": "H0gBfXWF",
    "Location_RG_City": "Luxembourg City",
    "Location_RG_Country": "Luxembourg",
    "lat": 49.61162,
    "long": 6.1319346,
    "title": "Luxembourg City - Luxembourg",
    "count": 4
  },
  {
    "_id": "6441d55a513989512df71869",
    "city_id": "0vnYQAg1",
    "Location_RG_City": "Birmingham AL",
    "Location_RG_Country": "United States",
    "lat": 33.52066,
    "long": -86.80249,
    "title": "Birmingham AL - United States",
    "count": 4
  },
  {
    "_id": "6441d55a513989512df718e7",
    "city_id": "z0v130jV",
    "Location_RG_City": "Sacramento CA",
    "Location_RG_Country": "United States",
    "lat": 38.581573,
    "long": -121.4944,
    "title": "Sacramento CA - United States",
    "count": 4
  },
  {
    "_id": "6441d55a513989512df71ac5",
    "city_id": "CtQWa0jH",
    "Location_RG_City": "Patras",
    "Location_RG_Country": "Greece",
    "lat": 38.24664,
    "long": 21.734573,
    "title": "Patras - Greece",
    "count": 4
  },
  {
    "_id": "6441d55a513989512df716d1",
    "city_id": "3sscmCQg",
    "Location_RG_City": "Ribeirão Preto SP",
    "Location_RG_Country": "Brazil",
    "lat": -21.170511,
    "long": -47.810246,
    "title": "Ribeirão Preto SP - Brazil",
    "count": 4
  },
  {
    "_id": "6441d55a513989512df71716",
    "city_id": "Uf2ytSxG",
    "Location_RG_City": "Paradise CA",
    "Location_RG_Country": "United States",
    "lat": 39.759605,
    "long": -121.62192,
    "title": "Paradise CA - United States",
    "count": 4
  },
  {
    "_id": "6441d55a513989512df71806",
    "city_id": "Ggf7UvXQ",
    "Location_RG_City": "Aveiro",
    "Location_RG_Country": "Portugal",
    "lat": 40.640507,
    "long": -8.653754,
    "title": "Aveiro - Portugal",
    "count": 4
  },
  {
    "_id": "6441d55a513989512df719b4",
    "city_id": "EWh2RLFg",
    "Location_RG_City": "Corrientes",
    "Location_RG_Country": "Argentina",
    "lat": -27.469213,
    "long": -58.830635,
    "title": "Corrientes - Argentina",
    "count": 4
  },
  {
    "_id": "6441d55a513989512df71763",
    "city_id": "F6wd1pIJ",
    "Location_RG_City": "Bochum",
    "Location_RG_Country": "Germany",
    "lat": 51.481846,
    "long": 7.216236,
    "title": "Bochum - Germany",
    "count": 4
  },
  {
    "_id": "6441d55a513989512df717ab",
    "city_id": "dgjGvgl1",
    "Location_RG_City": "Greenville SC",
    "Location_RG_Country": "United States",
    "lat": 34.85262,
    "long": -82.39401,
    "title": "Greenville SC - United States",
    "count": 4
  },
  {
    "_id": "6441d55a513989512df7159f",
    "city_id": "FJiUoMOc",
    "Location_RG_City": "Southend-on-Sea",
    "Location_RG_Country": "United Kingdom",
    "lat": 51.545925,
    "long": 0.7077123,
    "title": "Southend-on-Sea - United Kingdom",
    "count": 4
  },
  {
    "_id": "6441d55a513989512df71be5",
    "city_id": "NutY4Aty",
    "Location_RG_City": "Norwich",
    "Location_RG_Country": "United Kingdom",
    "lat": 52.630886,
    "long": 1.297355,
    "title": "Norwich - United Kingdom",
    "count": 4
  },
  {
    "_id": "6441d55a513989512df716f4",
    "city_id": "h9dUK4Ex",
    "Location_RG_City": "Richmond VA",
    "Location_RG_Country": "United States",
    "lat": 37.540726,
    "long": -77.43605,
    "title": "Richmond VA - United States",
    "count": 4
  },
  {
    "_id": "6441d55a513989512df7167e",
    "city_id": "lLKIUUlg",
    "Location_RG_City": "Envigado",
    "Location_RG_Country": "Colombia",
    "lat": 6.169611,
    "long": -75.587364,
    "title": "Envigado - Colombia",
    "count": 4
  },
  {
    "_id": "6441d55a513989512df713d2",
    "city_id": "h4d5MBQU",
    "Location_RG_City": "Chania",
    "Location_RG_Country": "Greece",
    "lat": 35.51383,
    "long": 24.018036,
    "title": "Chania - Greece",
    "count": 4
  },
  {
    "_id": "6441d55a513989512df713d1",
    "city_id": "s2Ge7LMH",
    "Location_RG_City": "Opole",
    "Location_RG_Country": "Poland",
    "lat": 50.675106,
    "long": 17.921297,
    "title": "Opole - Poland",
    "count": 4
  },
  {
    "_id": "6441d55a513989512df71396",
    "city_id": "5cbSQPKp",
    "Location_RG_City": "Bradford",
    "Location_RG_Country": "United Kingdom",
    "lat": 53.795982,
    "long": -1.759398,
    "title": "Bradford - United Kingdom",
    "count": 4
  },
  {
    "_id": "6441d55a513989512df71577",
    "city_id": "dx44pLe1",
    "Location_RG_City": "Porto",
    "Location_RG_Country": "Portugal",
    "lat": 41.157944,
    "long": -8.629106,
    "title": "Porto - Portugal",
    "count": 4
  },
  {
    "_id": "6441d55a513989512df71832",
    "city_id": "8s7Hqmt1",
    "Location_RG_City": "Valledupar",
    "Location_RG_Country": "Colombia",
    "lat": 10.474245,
    "long": -73.24364,
    "title": "Valledupar - Colombia",
    "count": 4
  },
  {
    "_id": "6441d55a513989512df713af",
    "city_id": "95J6tXiS",
    "Location_RG_City": "Rotherham",
    "Location_RG_Country": "United Kingdom",
    "lat": 53.432602,
    "long": -1.363501,
    "title": "Rotherham - United Kingdom",
    "count": 4
  },
  {
    "_id": "6441d55a513989512df715ed",
    "city_id": "PA6f0RLq",
    "Location_RG_City": "Enschede",
    "Location_RG_Country": "Netherlands",
    "lat": 52.22154,
    "long": 6.893662,
    "title": "Enschede - Netherlands",
    "count": 4
  },
  {
    "_id": "6441d55a513989512df7162d",
    "city_id": "F7DotPzE",
    "Location_RG_City": "La Plata",
    "Location_RG_Country": "Argentina",
    "lat": -34.920494,
    "long": -57.953568,
    "title": "La Plata - Argentina",
    "count": 4
  },
  {
    "_id": "6441d55a513989512df71add",
    "city_id": "mBETyBJh",
    "Location_RG_City": "Lviv",
    "Location_RG_Country": "Ukraine",
    "lat": 49.839684,
    "long": 24.029716,
    "title": "Lviv - Ukraine",
    "count": 4
  },
  {
    "_id": "6441d55a513989512df71b07",
    "city_id": "16L4mZDM",
    "Location_RG_City": "Reims",
    "Location_RG_Country": "France",
    "lat": 49.258327,
    "long": 4.031696,
    "title": "Reims - France",
    "count": 4
  },
  {
    "_id": "6441d55a513989512df71509",
    "city_id": "omx5zls3",
    "Location_RG_City": "Dordrecht",
    "Location_RG_Country": "Netherlands",
    "lat": 51.813297,
    "long": 4.690093,
    "title": "Dordrecht - Netherlands",
    "count": 4
  },
  {
    "_id": "6441d55a513989512df71e76",
    "city_id": "IPDKdIGq",
    "Location_RG_City": "Antofagasta",
    "Location_RG_Country": "Chile",
    "lat": -23.650928,
    "long": -70.3975,
    "title": "Antofagasta - Chile",
    "count": 4
  },
  {
    "_id": "6441d55a513989512df71d22",
    "city_id": "EEI2ACQO",
    "Location_RG_City": "Maringá PR",
    "Location_RG_Country": "Brazil",
    "lat": -23.421,
    "long": -51.933056,
    "title": "Maringá PR - Brazil",
    "count": 4
  },
  {
    "_id": "6441d55a513989512df71711",
    "city_id": "pCPPZIN7",
    "Location_RG_City": "Poznań",
    "Location_RG_Country": "Poland",
    "lat": 52.406376,
    "long": 16.925169,
    "title": "Poznań - Poland",
    "count": 4
  },
  {
    "_id": "6441d55a513989512df7145c",
    "city_id": "hvBgBof9",
    "Location_RG_City": "Nottingham",
    "Location_RG_Country": "United Kingdom",
    "lat": 52.954784,
    "long": -1.1581086,
    "title": "Nottingham - United Kingdom",
    "count": 4
  },
  {
    "_id": "6441d55a513989512df713d4",
    "city_id": "dtSLl1NA",
    "Location_RG_City": "Rostov-on-Don",
    "Location_RG_Country": "Russia",
    "lat": 47.235714,
    "long": 39.701504,
    "title": "Rostov-on-Don - Russia",
    "count": 4
  },
  {
    "_id": "6441d55a513989512df71510",
    "city_id": "udYmSMsn",
    "Location_RG_City": "Abu Dhabi",
    "Location_RG_Country": "United Arab Emirates",
    "lat": 24.44678,
    "long": 54.403393,
    "title": "Abu Dhabi - United Arab Emirates",
    "count": 4
  },
  {
    "_id": "6441d55a513989512df71b94",
    "city_id": "UX5LkhHD",
    "Location_RG_City": "Boones Mill VA",
    "Location_RG_Country": "United States",
    "lat": 37.116806,
    "long": -79.955315,
    "title": "Boones Mill VA - United States",
    "count": 4
  },
  {
    "_id": "6441d55a513989512df71522",
    "city_id": "8U6N2ZBC",
    "Location_RG_City": "Sincelejo",
    "Location_RG_Country": "Colombia",
    "lat": 9.304577,
    "long": -75.39056,
    "title": "Sincelejo - Colombia",
    "count": 4
  },
  {
    "_id": "6441d55a513989512df717fd",
    "city_id": "Ub7Hu8zt",
    "Location_RG_City": "Toulon",
    "Location_RG_Country": "France",
    "lat": 43.12423,
    "long": 5.928,
    "title": "Toulon - France",
    "count": 4
  },
  {
    "_id": "6441d55a513989512df71456",
    "city_id": "f6XTVcGH",
    "Location_RG_City": "Springfield MO",
    "Location_RG_Country": "United States",
    "lat": 37.208958,
    "long": -93.2923,
    "title": "Springfield MO - United States",
    "count": 4
  },
  {
    "_id": "6441d55a513989512df71498",
    "city_id": "n9sR41ow",
    "Location_RG_City": "Blumenau SC",
    "Location_RG_Country": "Brazil",
    "lat": -26.91662,
    "long": -49.071743,
    "title": "Blumenau SC - Brazil",
    "count": 4
  },
  {
    "_id": "6441d55a513989512df71428",
    "city_id": "0YBcFTjx",
    "Location_RG_City": "Chesterton IN",
    "Location_RG_Country": "United States",
    "lat": 41.61059,
    "long": -87.0642,
    "title": "Chesterton IN - United States",
    "count": 4
  },
  {
    "_id": "6441d55a513989512df7152e",
    "city_id": "ts7DAYrh",
    "Location_RG_City": "Port Louis",
    "Location_RG_Country": "Mauritius",
    "lat": -20.16089,
    "long": 57.50122,
    "title": "Port Louis - Mauritius",
    "count": 4
  },
  {
    "_id": "6441d55a513989512df7175e",
    "city_id": "iNvKeJz2",
    "Location_RG_City": "Odesa",
    "Location_RG_Country": "Ukraine",
    "lat": 46.482525,
    "long": 30.723309,
    "title": "Odesa - Ukraine",
    "count": 4
  },
  {
    "_id": "6441d55a513989512df71a3c",
    "city_id": "5mHre1dj",
    "Location_RG_City": "South Plainfield NJ",
    "Location_RG_Country": "United States",
    "lat": 40.57927,
    "long": -74.41154,
    "title": "South Plainfield NJ - United States",
    "count": 4
  },
  {
    "_id": "6441d55a513989512df71c16",
    "city_id": "Yj52YFx4",
    "Location_RG_City": "Annecy",
    "Location_RG_Country": "France",
    "lat": 45.899246,
    "long": 6.129384,
    "title": "Annecy - France",
    "count": 4
  },
  {
    "_id": "6441d55a513989512df71c30",
    "city_id": "BEF1ZZbI",
    "Location_RG_City": "Memphis TN",
    "Location_RG_Country": "United States",
    "lat": 35.149536,
    "long": -90.04898,
    "title": "Memphis TN - United States",
    "count": 4
  },